name,formatted_address,rating,delivery,dine_in,reservable,serves_beer,serves_brunch,serves_dinner,serves_lunch,serves_vegetarian_food,serves_wine,takeout,user_ratings_total,vicinity,wheelchair_accessible_entrance,Latitude,Longitude,Postal Code,Neighbourhood,District
LA CHULA GASTROBAR,"Carrer d'Espalter, 4, 08001 Barcelona, Spain",4.4,0,1,1,1,1,1,1,1,1,1,62.0,"Carrer d'Espalter, 4, Barcelona",True,41.37855390000001,2.1706442,08001,El Raval,Ciutat Vella
Tokyo-Ya,"C/ de Balmes, 197, 08006 Barcelona, Spain",4.4,0,0,0,0,0,0,0,0,0,0,335.0,"Carrer de Balmes, 197, Barcelona",True,41.39714559999999,2.1519693,08006,El Farro,Sarria - Sant Gervasi
M.A.M.I. Italian Gastrobar,"Av. Diagonal, 366, 08013 Barcelona, Spain",4.9,0,1,1,1,1,1,1,1,1,1,162.0,"Avinguda Diagonal, 366, Barcelona",True,41.39961,2.171110000000001,08013,El Fort Pienc,Eixample
Maska GastroPub,"C/ de Pau Claris, 117, 08009 Barcelona, Spain",4.9,1,1,1,1,0,1,1,1,1,1,140.0,"Carrer de Pau Claris, 117, Barcelona",True,41.3921409,2.1678013,08009,Dreta Eixample,Eixample
Restaurant Núria Pous,"C. de Santander, 16, 08020 Barcelona, Spain",4.3,1,1,0,1,1,0,1,0,1,1,52.0,"Carrer de Santander, 16, Barcelona",True,41.42383909999999,2.1981799,08020,La Verneda - Sant Marti de Provençals,Sant Marti
O Grelo,"C/ de Bolívia, 138, 08018 Barcelona, Spain",4.0,0,1,1,1,1,1,1,0,1,1,238.0,"Carrer de Bolívia, 138, Barcelona",True,41.4064845,2.19618,08018,El Clot,Sant Marti
Viandbeers,"Carrer de Blai, 45, bajos 2, 08004 Barcelona, Spain",4.0,0,1,0,1,0,1,1,0,1,1,197.0,"Carrer de Blai, 45, bajos 2, Barcelona",,41.37405330000001,2.1632921,08004,Poble Sec,Sants - Montjuic
Nube 92,"C/ de St. Antoni Maria Claret, 92, 08025 Barcelona, Spain",4.6,1,1,0,1,0,0,1,0,0,1,23.0,"Carrer de Sant Antoni Maria Claret, 92, Barcelona",True,41.4063639,2.1682995,08025,Camps d'en Grassot i Gracia Nova,Gracia
Flintana 89,"C/ de Balmes, 341, 08006 Barcelona, Spain",,0,1,0,1,0,0,1,0,1,1,,"Carrer de Balmes, 341, Barcelona",,41.4031854,2.1428046,08006,El Farro,Sarria - Sant Gervasi
ASOCIACION cannabica,"C/ de la Selva de Mar, 9, 08019 Barcelona, Spain",,0,1,0,1,0,0,0,0,0,0,,"Carrer de la Selva de Mar, 9, Barcelona",True,41.4054796,2.2128076,08019,El Besos - Sant Marti,Sant Marti
Ristorante Pizzeria Eden Barcelona,"C/ de Provença, 332, 08037 Barcelona, Spain",4.7,1,1,1,1,1,1,1,1,1,1,2887.0,"Carrer de Provença, 332, Barcelona",False,41.3972199,2.1649694,08037,Dreta Eixample,Eixample
Restaurante Sporting,"C. de Maspons, 16, 08012 Barcelona, Spain",4.1,0,1,0,1,1,1,1,0,1,1,745.0,"Carrer de Maspons, 16, Barcelona",True,41.40120719999999,2.1564974,08012,Vila de Gracia,Gracia
Restaurant Zero Nove Cinque,"Carrer de Jaume Giralt, 5, 08003 Barcelona, Spain",4.6,0,1,1,1,0,1,1,0,1,1,618.0,"Carrer de Jaume Giralt, 5, Barcelona",True,41.3870925,2.179968999999999,08003,Barceloneta,Ciutat Vella
Empanades LA PANADA - Gaudí,"Av. de Gaudí, 72, 08025 Barcelona, Spain",4.7,1,0,0,0,0,0,0,0,0,1,234.0,"Avinguda de Gaudí, 72, Barcelona",True,41.4105597,2.174510199999999,08025,Camps d'en Grassot i Gracia Nova,Gracia
Pizzeria La Svolta,"C. de Pérez Galdós, 30, 08012 Barcelona, Spain",4.4,0,1,0,1,0,1,1,0,1,1,288.0,"Carrer de Pérez Galdós, 30, Barcelona",,41.40611439999999,2.1515097,08012,Vila de Gracia,Gracia
Bar Feliz,"Pg. de Fabra i Puig, 278, 08031 Barcelona, Spain",3.7,0,1,1,1,0,0,0,0,1,1,135.0,"Passeig de Fabra i Puig, 278, Barcelona",,41.430481,2.1723776,08031,Horta,Horta - Guinardo
el fornet,"C/ de Roger de Llúria, 56, 08009 Barcelona, Spain",4.1,0,1,0,1,1,0,1,0,0,1,270.0,"Carrer de Roger de Llúria, 56, Barcelona",True,41.3930855,2.1691175,08009,Dreta Eixample,Eixample
JOK,"Carrer de Mallorca, 275, Entresol, C/ de Mallorca, 275, Entresuelo, 08008 Barcelona, Spain",4.6,0,1,1,1,1,1,1,0,1,0,620.0,"Carrer de Mallorca, 275, Entresol, Carrer de Mallorca, 275, Entresuelo, Barcelona",,41.3948167,2.1635591,08008,Antiga Esquerra Eixample,Eixample
Bar Fluvià 45,"Carrer de Fluvià, 45, 08019 Barcelona, Spain",4.3,0,1,0,1,1,1,1,0,1,1,116.0,"Carrer de Fluvià, 45, Barcelona",True,41.4055291,2.2087001,08019,El Besos - Sant Marti,Sant Marti
K Va Brö,"Pg. de Fabra i Puig, 311, Entresuelo 2, 08031 Barcelona, Spain",4.5,1,1,0,1,0,0,1,0,1,1,13.0,"Passeig de Fabra i Puig, 311, Entresuelo 2, Barcelona",True,41.4303037,2.1679435,08031,Horta,Horta - Guinardo
Món Việt,"C/ de Sepúlveda, 94, 08015 Barcelona, Spain",4.4,1,1,1,1,1,1,1,1,1,1,2035.0,"Carrer de Sepúlveda, 94, Barcelona",True,41.3791337,2.1573064,08015,Nova Esquerra Exiample - Sant Antoni,Eixample
CREPPY,"1, Carrer del Camp, 08021 Barcelona, Spain",3.9,1,0,0,0,0,0,0,0,0,1,218.0,"1, Carrer del Camp, Barcelona",,41.4012454,2.1385506,08021,Les Corts - Sarria,Les Corts
Simply To Go,"Pg. Marítim de la Barceloneta, 25, 08003 Barcelona, Spain",2.7,0,1,0,0,0,0,1,0,0,1,6.0,"Passeig Marítim de la Barceloneta, 25, Barcelona",True,41.3830135,2.1944369,08003,Barceloneta,Ciutat Vella
El Pibe,"Carrer de l'Artesania, 54, 08042 Barcelona, Spain",4.0,1,1,0,1,1,1,1,0,1,1,949.0,"Carrer de l'Artesania, 54, Barcelona",True,41.440174,2.174052,08042,Canyelles - Roquetes,Nou Barris
El Rincon Dominicano Bcn,"C/ de Biscaia, 361, 08027 Barcelona, Spain",4.9,1,1,1,1,0,1,1,0,1,1,391.0,"Carrer de Biscaia, 361, Barcelona",True,41.41724259999999,2.1863673,08027,El Congres - Navas,Sant Andreu
El chalito,"Via Augusta, 08021 Barcelona, Spain",3.7,0,1,1,1,0,1,1,0,1,1,9.0,"Via Augusta, Barcelona",True,41.39762810000001,2.135730100000001,08021,Les Corts - Sarria,Les Corts
La Mesa,"Pg. de Gràcia, 38, 40, 08007 Barcelona, Spain",,0,1,1,0,0,0,1,0,0,0,,"Passeig de Gràcia, 38, 40, Barcelona",True,41.3912786,2.1667383,08007,Antiga Esquerra Eixample,Eixample
Turquia Halal Doner Kebab - Pizzeria,"Carrer de Lucà, 13, 08022 Barcelona, Spain",3.8,1,1,0,0,0,1,1,0,0,1,308.0,"Carrer de Lucà, 13, Barcelona",True,41.4111486,2.1386546,08022,Sarria - La Bonanova,Les Corts
Wok of Fame,"Carrer de la Marina, 57, 08005 Barcelona, Spain",5.0,1,1,0,1,0,1,1,0,1,1,21.0,"Carrer de la Marina, 57, Barcelona",True,41.3914397,2.190827,08005,Poblenou,Sant Marti
La Mundana,"Carrer del Vallespir, 93, 08014 Barcelona, Spain",4.5,1,1,1,1,0,1,1,0,1,1,2122.0,"Carrer del Vallespir, 93, Barcelona",True,41.3811259,2.1358199,08014,La Bordeta - Les Corts,Sants - Montjuic
El Kabron Beach Club,"Passeig Marítim del Bogatell, 115, 08005 Barcelona, Spain",3.6,0,1,1,1,0,1,1,0,1,0,65.0,"Passeig Marítim del Bogatell, 115, Barcelona",,41.3997299,2.2129451,08005,Poblenou,Sant Marti
arcano,"Gran Via de les Corts Catalanes, 08010 Barcelona, Spain",,0,1,0,0,0,1,1,0,0,0,,"Gran Via de les Corts Catalanes, Barcelona",True,41.39390969999999,2.1745722,08010,Dreta Eixample,Eixample
Bar Siscu (Comida Asiática),"C/ de Sardenya, 49, 08005 Barcelona, Spain",4.4,1,1,1,1,0,1,1,0,1,1,46.0,"Carrer de Sardenya, 49, Barcelona",True,41.39187039999999,2.1883328,08005,Poblenou,Sant Marti
BIG BOWL 大碗老坛酸菜鱼,"C. de la Indústria, 156, 08025 Barcelona, Spain",4.5,1,1,1,1,0,0,0,0,1,1,210.0,"Carrer de la Indústria, 156, Barcelona",,41.4096143,2.174816,08025,Camps d'en Grassot i Gracia Nova,Gracia
El Racó de Collserola,"Ctra. de l'Església, km 5, 8, 08017 Barcelona, Spain",4.1,0,1,1,1,1,1,1,0,1,1,997.0,"Carretera de l'Església, km 5, 8, Barcelona",True,41.4184317,2.1014977,08017,Vallvidrera,Sarria - Sant Gervasi
Entrepans I Tapes,"Carrer de Castella, 08018 Barcelona, Spain",4.0,0,1,0,1,0,0,1,0,1,1,1.0,"Carrer de Castella, Barcelona",True,41.40566500000001,2.1973105,08018,El Clot,Sant Marti
Restaurante Biblos,"C/ de Praga, 27-29, 08024 Barcelona, Spain",5.0,1,1,1,1,0,1,1,1,1,1,157.0,"Carrer de Praga, 27-29, Barcelona",False,41.41380960000001,2.1630862,08024,Gracia - Can Baro,Gracia
Ametller Origen,"C/ de Ricardo Villa, 2, 08017 Barcelona, Spain",4.1,1,0,0,0,0,0,0,0,0,0,28.0,"Carrer de Ricardo Villa, 2, Barcelona",True,41.392381,2.133228,08017,Vallvidrera,Sarria - Sant Gervasi
El Jardí Bar Restaurant,"Carrer de Malats, 16, 08030 Barcelona, Spain",4.0,0,1,1,1,1,1,1,0,1,1,143.0,"Carrer de Malats, 16, Barcelona",True,41.436133,2.1903848,08030,San Andres Palomar,Sant Andreu
Sushi,"C/ Antic de Bofarull, 15, 08026 Barcelona, Spain",,0,1,0,0,0,0,0,0,0,0,,"Carrer Antic de Bofarull, 15, Barcelona",,41.41095109999999,2.186201,08026,Camp de l'arpa,Sant Marti
TERNERITO street food,"C/ de Mallorca, 437, 08013 Barcelona, Spain",4.9,1,1,0,1,0,1,1,0,0,1,158.0,"Carrer de Mallorca, 437, Barcelona",True,41.40525329999999,2.1774363,08013,El Fort Pienc,Eixample
BAR RESTAURANTE CAMI,"Carrer de Lluc, 6, 08016 Barcelona, Spain",4.7,0,1,1,1,1,1,1,0,1,1,218.0,"Carrer de Lluc, 6, Barcelona",,41.4381351,2.1779455,08016,Porta-La Prosperitat,Nou Barris
CUVI,"Carrer de Marià Cubí, 17, 08006 Barcelona, Spain",4.6,0,1,1,1,1,1,1,1,1,1,66.0,"Carrer de Marià Cubí, 17, Barcelona",,41.3987397,2.1505287,08006,El Farro,Sarria - Sant Gervasi
Bar Bodega Carol,"C/ d'Aragó, 558, 08026 Barcelona, Spain",4.3,0,1,0,1,0,0,0,0,1,1,353.0,"Carrer d'Aragó, 558, Barcelona",,41.40696199999999,2.184842,08026,Camp de l'arpa,Sant Marti
Cafe Bar Dada,"C/ del Rosselló, 86, 08029 Barcelona, Spain",3.1,0,1,0,1,0,1,1,0,1,1,150.0,"Carrer del Rosselló, 86, Barcelona",,41.3870201,2.1491723,08029,Sarria,Sarria - Sant Gervasi
Super Döner Kebab,"08041 Barcelona, Spain",4.0,1,1,0,1,0,1,1,0,0,1,48.0,Spain,,41.4169834,2.1741794,08041,El Guinardo,Horta - Guinardo
Chiringuito Mokai Beach,"Avinguda del Litoral, 08005 Barcelona, Spain",3.4,0,1,1,1,0,0,0,0,1,1,1109.0,"Avinguda del Litoral, Barcelona",True,41.3903126,2.2012666,08005,Poblenou,Sant Marti
El Típical,"Carrer de Llull, 259, 08005 Barcelona, Spain",4.7,0,1,0,1,0,0,1,1,1,1,154.0,"Carrer de Llull, 259, Barcelona",True,41.4043669,2.20643,08005,Poblenou,Sant Marti
Burrikos Balmes,"C/ de Balmes, 440, 08022 Barcelona, Spain",4.2,1,1,0,1,0,1,1,0,0,1,10.0,"Carrer de Balmes, 440, Barcelona",True,41.4081186,2.1381179,08022,Sarria - La Bonanova,Les Corts
Figa Mostrador,"Via Augusta, 105, 08006 Barcelona, Spain",5.0,0,1,1,1,1,1,1,1,1,1,70.0,"Via Augusta, 105, Barcelona",,41.4010719,2.148429999999999,08006,El Farro,Sarria - Sant Gervasi
Made In Sicily,"Carrer dels Escudellers, 35, 08002 Barcelona, Spain",4.3,1,1,1,1,1,1,1,1,1,1,1107.0,"Carrer dels Escudellers, 35, Barcelona",True,41.3798848,2.1765786,08002,Barri Gotic,Ciutat Vella
Chihuahua Restaurant,"Pg. de Maragall, 107, 08041 Barcelona, Spain",4.2,1,1,1,1,1,1,1,0,1,1,1601.0,"Passeig de Maragall, 107, Barcelona",True,41.4189146,2.1802376,08041,El Guinardo,Horta - Guinardo
La Tapería,"Carrer del Pi, 08002 Barcelona, Spain",5.0,0,1,1,1,0,1,1,0,1,1,1.0,"Carrer del Pi, Barcelona",True,41.38329649999999,2.1739325,08002,Barri Gotic,Ciutat Vella
La Pubilla,"Plaça de la Llibertat, 23, 08012 Barcelona, Spain",4.5,0,1,1,1,0,1,1,0,1,0,2164.0,"Plaça de la Llibertat, 23, Barcelona",,41.3995399,2.1536577,08012,Vila de Gracia,Gracia
Casa Rous,"Av. de Josep Tarradellas, 133, 08029 Barcelona, Spain",3.7,0,1,0,1,0,0,1,0,1,1,3.0,"Avinguda de Josep Tarradellas, 133, Barcelona",,41.3900085,2.1432105,08029,Sarria,Sarria - Sant Gervasi
Ido,"Carrer de Laforja, 15, 08006 Barcelona, Spain",,0,1,0,0,0,0,0,0,0,0,,"Carrer de Laforja, 15, Barcelona",,41.3992873,2.1499919,08006,El Farro,Sarria - Sant Gervasi
Bonanova Coffees,"260-262, Via Augusta, 08017 Barcelona, Spain",4.6,0,1,0,1,0,0,1,0,1,1,64.0,"260-262, Via Augusta, Barcelona",True,41.3980436,2.1339846,08017,Vallvidrera,Sarria - Sant Gervasi
mà de morter,"Travessera de les Corts, 118-120, Local 2, 08028 Barcelona, Spain",4.3,0,1,1,1,1,0,1,1,1,1,173.0,"Travessera de les Corts, 118-120, Local 2, Barcelona",True,41.3799415,2.1258397,08028,Les Corts,Les Corts
RICO KEBAB PIZZERIA,"Carrer de Baltasar Gracián, 39, 08016 Barcelona, Spain",3.8,1,1,1,1,1,1,1,0,0,1,24.0,"Carrer de Baltasar Gracián, 39, Barcelona",,41.44127940000001,2.1802651,08016,Porta-La Prosperitat,Nou Barris
Frankfurt Julia,"Plaça d'Eivissa, 4, 08032 Barcelona, Spain",3.8,0,1,0,1,1,1,1,0,1,1,268.0,"Plaça d'Eivissa, 4, Barcelona",False,41.4300141,2.1609755,08032,La Font d'en Fargues,Horta - Guinardo
Pizza Bulls,"Gran Via de les Corts Catalanes, 972, 08018 Barcelona, Spain",4.4,0,1,1,1,0,1,1,1,1,1,919.0,"Gran Via de les Corts Catalanes, 972, Barcelona",False,41.4102137,2.196858,08018,El Clot,Sant Marti
El Rincon de Kebab,"Carrer del Portal de Santa Madrona, 36, 08001 Barcelona, Spain",2.7,0,1,0,0,0,1,1,0,0,1,3.0,"Carrer del Portal de Santa Madrona, 36, Barcelona",True,41.3749083,2.1730694,08001,El Raval,Ciutat Vella
Restaurante Nico's,"Carrer dels Nou Pins, 36, 08016 Barcelona, Spain",3.0,0,1,1,1,1,1,1,0,1,1,20.0,"Carrer dels Nou Pins, 36, Barcelona",True,41.442925,2.1821221,08016,Porta-La Prosperitat,Nou Barris
Bangla Spice,"C. de la Cera, 42, 08001 Barcelona, Spain",4.3,0,1,0,0,0,0,1,0,0,1,46.0,"Carrer de la Cera, 42, Barcelona",True,41.378006,2.1650879,08001,El Raval,Ciutat Vella
El Carrussel,"Carrer de l'Emancipació, 38, 08022 Barcelona, Spain",4.5,0,1,1,1,0,1,0,1,1,0,60.0,"Carrer de l'Emancipació, 38, Barcelona",,41.40351849999999,2.133183100000001,08022,Sarria - La Bonanova,Les Corts
Nina Burgers and Cocktails,"C/ del Clot, 34, 08018 Barcelona, Spain",4.2,1,1,1,1,1,1,1,1,1,1,663.0,"Carrer del Clot, 34, Barcelona",True,41.4066781,2.1877877,08018,El Clot,Sant Marti
Dr. Zhang Dumpling Bar,"C/ de Sepúlveda, 137, 08011 Barcelona, Spain",4.6,1,1,1,1,0,1,1,0,1,1,715.0,"Carrer de Sepúlveda, 137, Barcelona",True,41.3816973,2.1603286,08011,Esquerra Eixample,Eixample
Frankfurt pedralbes,"C/ d'Arístides Maillol, 08028 Barcelona, Spain",,0,1,0,0,0,0,1,0,0,1,,"Carrer d'Arístides Maillol, Barcelona",True,41.3790618,2.120007300000001,08028,Les Corts,Les Corts
Alberto Bar Restaurante,"C/ de Provença, 534, 08025 Barcelona, Spain",3.5,0,1,0,0,0,0,0,0,0,0,2.0,"Carrer de Provença, 534, Barcelona",,41.4078397,2.1791797,08025,Camps d'en Grassot i Gracia Nova,Gracia
Roto’s burger,"Carrer de Llauder, 7, 08003 Barcelona, Spain",4.1,1,1,1,1,0,1,1,0,1,1,151.0,"Carrer de Llauder, 7, Barcelona",True,41.3814132,2.1835392,08003,Barceloneta,Ciutat Vella
Rostisseria IAN,"C/ del Pla de Fornells, 10, 08042 Barcelona, Spain",4.9,1,0,0,0,0,0,1,0,0,1,126.0,"Carrer del Pla de Fornells, 10, Barcelona",True,41.44638,2.176712,08042,Canyelles - Roquetes,Nou Barris
Keik Cafè Restaurant,"Carrer del Dr. Fleming, 21, 08017 Barcelona, Spain",4.2,1,1,1,1,1,1,1,0,1,1,754.0,"Carrer del Doctor Fleming, 21, Barcelona",True,41.394144,2.1346019,08017,Vallvidrera,Sarria - Sant Gervasi
MAMA DIMSUM,"C/ de Bailèn, 169, 08037 Barcelona, Spain",4.9,0,1,1,0,0,1,1,0,0,1,41.0,"Carrer de Bailèn, 169, Barcelona",,41.4005697,2.165478199999999,08037,Dreta Eixample,Eixample
Mimo-Bar de vins i platillos,"Carrer del Vallespir, 172, 08014 Barcelona, Spain",4.7,1,1,1,1,0,1,1,0,1,1,59.0,"Carrer del Vallespir, 172, Barcelona",True,41.3835619,2.1345326,08014,La Bordeta - Les Corts,Sants - Montjuic
Trikini,"C. de Pujades, 226, 08005 Barcelona, Spain",4.7,0,1,0,1,0,1,1,0,1,1,959.0,"Carrer de Pujades, 226, Barcelona",True,41.4030253,2.2027339,08005,Poblenou,Sant Marti
Gonzalez & Co Les Corts,"Carrer de Guitard, 54, 08014 Barcelona, Spain",4.4,1,1,0,1,0,1,1,0,1,1,117.0,"Carrer de Guitard, 54, Barcelona",True,41.3829997,2.1375258,08014,La Bordeta - Les Corts,Sants - Montjuic
Can Subirats,"C/ d'Ausiàs Marc, 155, 08013 Barcelona, Spain",3.9,0,1,0,1,0,0,1,0,1,1,18.0,"Carrer d'Ausiàs Marc, 155, Barcelona",,41.3978157,2.1838812,08013,El Fort Pienc,Eixample
Bar Calders,"C/ del Parlament, 25, 08015 Barcelona, Spain",4.3,0,1,1,1,1,1,1,0,1,1,2479.0,"Carrer del Parlament, 25, Barcelona",True,41.376477,2.1623586,08015,Nova Esquerra Exiample - Sant Antoni,Eixample
Restaurante Ca l' Anglés,"Carrer de Gavà, 20, 08014 Barcelona, Spain",4.4,0,1,1,1,0,1,1,0,1,1,276.0,"Carrer de Gavà, 20, Barcelona",,41.372207,2.1412035,08014,La Bordeta - Les Corts,Sants - Montjuic
Bar Restaurant DESPACITO,"C. de Lope de Vega, 94, 08005 Barcelona, Spain",4.3,0,1,1,1,1,1,1,0,1,1,204.0,"Carrer de Lope de Vega, 94, Barcelona",True,41.40439060000001,2.2038355,08005,Poblenou,Sant Marti
THAI LOTUS,"C/ de la Jota, 22, 24, 08016 Barcelona, Spain",4.5,0,1,1,1,0,1,1,1,1,1,301.0,"Carrer de la Jota, 22, 24, Barcelona",True,41.4294756,2.1823108,08016,Porta-La Prosperitat,Nou Barris
Bendito Fuoco,"C/ del Rosselló, 235, 08008 Barcelona, Spain",4.0,1,1,1,1,0,1,1,0,1,1,1339.0,"Carrer del Rosselló, 235, Barcelona",True,41.394194,2.1581668,08008,Antiga Esquerra Eixample,Eixample
O Ferrado,"C/ de Numància, 75, 08029 Barcelona, Spain",,0,1,1,0,0,0,0,0,0,0,,"Carrer de Numància, 75, Barcelona",True,41.3844444,2.1375,08029,Sarria,Sarria - Sant Gervasi
Lokillo Bar Taverna,"Carrer de Sant Elm, C/ del Mar, 75, 08003 Barcelona, Spain",4.5,0,1,0,1,0,1,1,0,1,1,583.0,"Carrer de Sant Elm, Carrer del Mar, 75, Barcelona",,41.3779637,2.1887196,08003,Barceloneta,Ciutat Vella
Domino's Pizza,"C/ de València, 79, 08029 Barcelona, Spain",3.7,1,1,0,0,0,0,0,0,0,1,1635.0,"Carrer de València, 79, Barcelona",True,41.385016,2.15274,08029,Sarria,Sarria - Sant Gervasi
La Barra del 7 Portes Pla de Palau,"Carrer de la Reina Cristina, 11, 08003 Barcelona, Spain",4.3,0,1,1,1,0,1,1,0,1,1,203.0,"Carrer de la Reina Cristina, 11, Barcelona",True,41.38202419999999,2.1836138,08003,Barceloneta,Ciutat Vella
Tucco Real Food Born,"Carrer del Consolat de Mar, 23, 08003 Barcelona, Spain",4.6,1,1,1,1,1,1,1,1,1,1,3177.0,"Carrer del Consolat de Mar, 23, Barcelona",True,41.3823255,2.1819472,08003,Barceloneta,Ciutat Vella
Restaurant Can Tuchana S.L.,"C/ de la Ciutat de Granada, 33, 08005 Barcelona, Spain",4.2,0,1,0,0,0,0,0,0,0,0,6.0,"Carrer de la Ciutat de Granada, 33, Barcelona",,41.3974688,2.1990708,08005,Poblenou,Sant Marti
Restaurante los Ángeles,"Gran Via de les Corts Catalanes, 479, 08015 Barcelona, Spain",4.0,0,1,0,0,0,0,0,0,0,0,2.0,"Gran Via de les Corts Catalanes, 479, Barcelona",,41.3802774,2.1554805,08015,Nova Esquerra Exiample - Sant Antoni,Eixample
TGB,"C/ de Sicília, 215, 08013 Barcelona, Spain",3.4,1,1,0,1,0,1,1,0,0,1,419.0,"Carrer de Sicília, 215, Barcelona",True,41.4014187,2.1735145,08013,El Fort Pienc,Eixample
Village Tandoori,"Carrer del Roser, 35, 08004 Barcelona, Spain",4.2,1,1,1,0,0,1,1,1,0,1,423.0,"Carrer del Roser, 35, Barcelona",True,41.3731604,2.1666141,08004,Poble Sec,Sants - Montjuic
Bar Restaurant Pinotxo,"Carrer del Compte d'Urgell 1 Mercat de Sant Antoni 18-19-20-21, 08011 Barcelona, Spain",4.4,0,1,0,1,1,0,1,0,1,1,1034.0,"Carrer del Compte d'Urgell 1 Mercat de Sant Antoni 18-19-20-21, Barcelona",True,41.3789312,2.1626212,08011,Esquerra Eixample,Eixample
Cafeteria Institut del Teatre,"08004 Barcelona, Spain",3.8,0,1,0,1,0,0,1,0,1,1,4.0,Barcelona,True,41.37158299999999,2.156887,08004,Poble Sec,Sants - Montjuic
Bar restaurant Martinez,"C/ de Bailèn, 158, 08037 Barcelona, Spain",4.7,0,1,1,1,0,0,0,0,1,1,71.0,"Carrer de Bailèn, 158, Barcelona",,41.40001170000001,2.1666902,08037,Dreta Eixample,Eixample
"Tapas, pinchos Blai Barcelona","Carrer de Blai, 48, 08004 Barcelona, Spain",3.4,0,1,0,1,0,1,1,0,1,1,97.0,"Carrer de Blai, 48, Barcelona",True,41.3742084,2.1633092,08004,Poble Sec,Sants - Montjuic
Sushiko ，Barceloneta,"Pg. de Joan de Borbó, 70, 08003 Barcelona, Spain",4.0,1,1,1,1,0,1,1,0,1,1,406.0,"Passeig de Joan de Borbó, 70, Barcelona",True,41.37585740000001,2.1892697,08003,Barceloneta,Ciutat Vella
TAKO restaurant Cuina Japonesa,"C. de Villarroel, 88, 08011 Barcelona, Spain",3.7,0,1,1,1,0,1,1,0,1,1,9.0,"Carrer de Villarroel, 88, Barcelona",,41.38460329999999,2.1579653,08011,Esquerra Eixample,Eixample
Can Punyetes,"Carrer de la Ciutat de Balaguer, 50, 08022 Barcelona, Spain",4.1,0,1,1,1,0,1,1,0,1,0,699.0,"Carrer de la Ciutat de Balaguer, 50, Barcelona",True,41.4040228,2.1348192,08022,Sarria - La Bonanova,Les Corts
Brabo,"C/ de Sèneca, 28, 08006 Barcelona, Spain",4.6,0,1,1,1,0,1,1,0,1,0,81.0,"Carrer de Sèneca, 28, Barcelona",True,41.3965262,2.155631000000001,08006,El Farro,Sarria - Sant Gervasi
Aladdin Restaurante,"Av. de Gaudí, 50, 08025 Barcelona, Spain",4.4,1,1,1,1,1,1,1,1,1,1,3796.0,"Avinguda de Gaudí, 50, Barcelona",True,41.4086611,2.1745222,08025,Camps d'en Grassot i Gracia Nova,Gracia
Ruta 40 - tapes & entrepans argentins,"C/ de Nàpols, 314, 08025 Barcelona, Spain",4.5,1,1,1,1,1,1,1,1,1,1,476.0,"Carrer de Nàpols, 314, Barcelona",,41.4042,2.1679499,08025,Camps d'en Grassot i Gracia Nova,Gracia
Gurtej,"C/ de Roger de Flor, 215, 08025 Barcelona, Spain",,0,1,0,0,0,0,0,0,0,0,,"Carrer de Roger de Flor, 215, Barcelona",,41.4014468,2.1689877,08025,Camps d'en Grassot i Gracia Nova,Gracia
La Rostisseria,"Carrer d'Enric Casanovas, 58, 08016 Barcelona, Spain",4.2,1,1,0,0,0,0,1,0,0,1,20.0,"Carrer d'Enric Casanovas, 58, Barcelona",,41.4409549,2.1796868,08016,Porta-La Prosperitat,Nou Barris
Sensi Tapas,"Carrer Ample, 24, 08002 Barcelona, Spain",4.5,0,1,1,1,1,1,0,1,1,0,1630.0,"Carrer Ample, 24, Barcelona",True,41.3802567,2.1799008,08002,Barri Gotic,Ciutat Vella
Can Pizza Universitat,"Ronda de la Univ., 20, 08007 Barcelona, Spain",4.4,1,1,1,1,0,1,1,0,1,1,601.0,"Ronda de la Universitat, 20, Barcelona",True,41.38681589999999,2.1676503,08007,Antiga Esquerra Eixample,Eixample
Cadaqués,"Plaça de la Vila de Gràcia, 11, 08012 Barcelona, Spain",2.3,1,1,1,1,1,1,1,0,1,1,1031.0,"Plaça de la Vila de Gràcia, 11, Barcelona",True,41.400545,2.157399299999999,08012,Vila de Gracia,Gracia
La Tasca de Pancho,"C/ del Clot, 155, 08026 Barcelona, Spain",4.5,0,1,0,1,0,0,1,0,1,1,16.0,"Carrer del Clot, 155, Barcelona",,41.41210950000001,2.1897842,08026,Camp de l'arpa,Sant Marti
Buenaventura organic cafe,"C/ de Trafalgar, 50, 08010 Barcelona, Spain",,0,0,0,0,0,0,0,0,0,0,,"Carrer de Trafalgar, 50, Barcelona",,41.38957690000001,2.1769756,08010,Dreta Eixample,Eixample
Stage Sky Bar & Lounge,"Hotel Occidental Barcelona 1929, Carrer de la Creu Coberta, 20-22, 08014 Barcelona, Spain",3.4,0,1,0,1,0,0,0,0,1,0,5.0,"Hotel Occidental Barcelona 1929, Carrer de la Creu Coberta, 20-22, Barcelona",True,41.3753804,2.1475591,08014,La Bordeta - Les Corts,Sants - Montjuic
Masaya,"C/ del Bisbe Sivilla, 42, 08022 Barcelona, Spain",4.2,0,1,0,0,0,0,0,0,0,0,212.0,"Carrer del Bisbe Sivilla, 42, Barcelona",,41.4041088,2.1343309,08022,Sarria - La Bonanova,Les Corts
El Til·ler,"C/ de Roger de Llúria, 134, 08037 Barcelona, Spain",4.9,0,1,1,1,0,1,1,0,1,0,16.0,"Carrer de Roger de Llúria, 134, Barcelona",True,41.3984191,2.1621367,08037,Dreta Eixample,Eixample
BREAK BCN,"C. de Villarroel, 47, LOC 1, 08011 Barcelona, Spain",4.0,1,1,1,1,1,1,1,1,1,1,153.0,"Carrer de Villarroel, 47, LOC 1, Barcelona",True,41.382379,2.1600586,08011,Esquerra Eixample,Eixample
Restaurante :Papila,"Av. de Vallcarca, 151, 08023 Barcelona, Spain",2.6,0,1,0,1,1,0,1,0,1,1,42.0,"Avinguda de Vallcarca, 151, Barcelona",True,41.4133157,2.1424721,08023,El Coll,Gracia
La Taverna Indiana,"C. de Jordi de Sant Jordi, 30, 08027 Barcelona, Spain",4.4,1,1,1,1,1,1,1,0,1,1,518.0,"Carrer de Jordi de Sant Jordi, 30, Barcelona",True,41.4229671,2.1831333,08027,El Congres - Navas,Sant Andreu
El Pachuco,"C/ de Sant Pau, 110, 08001 Barcelona, Spain",4.5,1,1,0,1,0,1,1,0,1,1,4453.0,"Carrer de Sant Pau, 110, Barcelona",False,41.37648659999999,2.1691639,08001,El Raval,Ciutat Vella
Crêperie Les 3 Pommes,"C/ d'Aragó, 150, 08011 Barcelona, Spain",4.5,1,1,1,1,0,0,1,1,1,1,655.0,"Carrer d'Aragó, 150, Barcelona",,41.3857069,2.1565184,08011,Esquerra Eixample,Eixample
Restauración Y Autoservicio S A,"C/ de Jovellanos, 5, 08001 Barcelona, Spain",,0,1,0,0,0,0,0,0,0,0,,"Carrer de Jovellanos, 5, Barcelona",,41.385291,2.1677237,08001,El Raval,Ciutat Vella
"Restaurant ""la boca aigua""","Carrer del Roser, 34, 08004 Barcelona, Spain",4.5,1,1,1,1,0,1,1,0,1,1,267.0,"Carrer del Roser, 34, Barcelona",True,41.3731866,2.1663803,08004,Poble Sec,Sants - Montjuic
Vermutería Olimpo,"C/ de Mallorca, 494, 08013 Barcelona, Spain",4.4,0,1,0,1,0,0,0,0,1,0,36.0,"Carrer de Mallorca, 494, Barcelona",,41.40663470000001,2.1799385,08013,El Fort Pienc,Eixample
Bar Mende,"Carrer de Jorge Manrique, 6, 08035 Barcelona, Spain",4.2,0,1,0,1,0,0,0,0,1,0,325.0,"Carrer de Jorge Manrique, 6, Barcelona",True,41.4324532,2.1478433,08035,Sant Genis dels Agudells,Horta - Guinardo
Zaika,"Carrer de Marià Aguiló, 111, 08005 Barcelona, Spain",4.6,1,0,0,0,0,1,1,1,0,1,82.0,"Carrer de Marià Aguiló, 111, Barcelona",,41.4005161,2.2043978,08005,Poblenou,Sant Marti
Euro kebab BON PASTOR,"Carrer del Foc Follet, 76, 08030 Barcelona, Spain",3.9,1,1,0,1,0,1,1,0,0,1,180.0,"Carrer del Foc Follet, 76, Barcelona",,41.4344853,2.2054568,08030,San Andres Palomar,Sant Andreu
Frankfurt's Sants,"Pg. de Sant Antoni, 2, 08014 Barcelona, Spain",3.3,1,1,0,1,0,1,1,0,1,1,87.0,"Passeig de Sant Antoni, 2, Barcelona",True,41.3759353,2.1364271,08014,La Bordeta - Les Corts,Sants - Montjuic
PANGEA The Travel Store,"Rambla de Catalunya, 23, 08007 Barcelona, Spain",4.4,0,0,0,0,0,0,0,0,0,0,760.0,"Rambla de Catalunya, 23, Barcelona",True,41.38882900000001,2.166271000000001,08007,Antiga Esquerra Eixample,Eixample
"Acai&Me | Breakfast, Brunch And Bowls","Plaça de la Llana, 19, 08003 Barcelona, Spain",4.9,1,1,0,0,0,0,1,1,0,1,487.0,"Plaça de la Llana, 19, Barcelona",True,41.384892,2.1793452,08003,Barceloneta,Ciutat Vella
Caliu Restaurant,"Carrer dels Assaonadors, 31, 08003 Barcelona, Spain",3.6,0,1,1,1,0,1,1,0,1,0,208.0,"Carrer dels Assaonadors, 31, Barcelona",True,41.3863645,2.1813526,08003,Barceloneta,Ciutat Vella
Frankie Gallo Cha Cha Cha | Pizzería Gràcia,"C/ de Roger de Llúria, 155, 08037 Barcelona, Spain",4.3,1,1,1,1,0,1,1,1,1,1,139.0,"Carrer de Roger de Llúria, 155, Barcelona",,41.3981408,2.162042,08037,Dreta Eixample,Eixample
Restaurante Halal en Barcelona | AL BARAKA,"C/ de València, 240, 08007 Barcelona, Spain",3.5,1,1,1,1,1,1,1,0,1,1,17.0,"Carrer de València, 240, Barcelona",,41.3904261,2.1606609,08007,Antiga Esquerra Eixample,Eixample
Les mil i una nits,"C/ del Rosselló, 354, 08025 Barcelona, Spain",4.4,1,1,1,1,0,1,1,1,1,1,288.0,"Carrer del Rosselló, 354, Barcelona",True,41.4031688,2.1708228,08025,Camps d'en Grassot i Gracia Nova,Gracia
Cerveseria 2D2Dspuma,"Carrer de la Manigua, 8, 08027 Barcelona, Spain",4.5,0,1,0,1,0,1,0,1,1,1,749.0,"Carrer de la Manigua, 8, Barcelona",,41.422483,2.179417,08027,El Congres - Navas,Sant Andreu
Bombay City 2,"C/ de la Diputació, 381, 08013 Barcelona, Spain",2.5,1,1,0,1,0,1,1,0,1,1,58.0,"Carrer de la Diputació, 381, Barcelona",True,41.3970938,2.1757583,08013,El Fort Pienc,Eixample
CAL TONI Rostiseria/Polleria,"Carrer de Torà, 2, 08020 Barcelona, Spain",,0,0,0,0,0,0,0,0,0,1,,"Carrer de Torà, 2, Barcelona",,41.4224813,2.200238,08020,La Verneda - Sant Marti de Provençals,Sant Marti
La Remesa Express,"Carrer del Concili de Trento, 168, 08020 Barcelona, Spain",,0,1,0,0,0,0,1,0,0,0,,"Carrer del Concili de Trento, 168, Barcelona",True,41.41649839999999,2.1999399,08020,La Verneda - Sant Marti de Provençals,Sant Marti
Restaurant Petit Xerpi,"Pg. de la Bonanova, 10, 08022 Barcelona, Spain",4.3,0,1,1,1,1,0,1,0,1,1,114.0,"Passeig de la Bonanova, 10, Barcelona",True,41.4061241,2.1320257,08022,Sarria - La Bonanova,Les Corts
Son Hao,"C/ de Muntaner, 66, 08011 Barcelona, Spain",4.6,1,1,1,1,0,1,1,0,1,1,727.0,"Carrer de Muntaner, 66, Barcelona",True,41.3872027,2.1591957,08011,Esquerra Eixample,Eixample
La Platerina,"Via Augusta, 45, 08006 Barcelona, Spain",4.4,0,1,1,1,0,1,1,0,1,1,209.0,"Via Augusta, 45, Barcelona",True,41.3979742,2.1533814,08006,El Farro,Sarria - Sant Gervasi
Alast,"Carrer de Calaf, 17, 08021 Barcelona, Spain",4.0,1,1,0,0,0,0,1,0,0,1,9.0,"Carrer de Calaf, 17, Barcelona",,41.3973613,2.1441842,08021,Les Corts - Sarria,Les Corts
"Panet Londres - Forn de Pa, Pastisseria i Cafeteria","C/ de Londres, 63, Botiga 4, 08029 Barcelona, Spain",4.3,0,1,0,0,0,0,0,0,0,1,153.0,"Carrer de Londres, 63, Botiga 4, Barcelona",True,41.3918824,2.1481606,08029,Sarria,Sarria - Sant Gervasi
Restaurante Txacoli,"08028 Barcelona, Spain",,0,1,0,0,0,0,0,0,0,0,,Barcelona,,41.3755768,2.1323615,08028,Les Corts,Les Corts
haddock,"C/ de Provença, 286, 08008 Barcelona, Spain",4.8,0,0,0,0,0,0,0,0,0,0,32.0,"Carrer de Provença, 286, Barcelona",True,41.3941101,2.160968,08008,Antiga Esquerra Eixample,Eixample
El Pati Barcelona,"Carrer del Teide, 26, 08031 Barcelona, Spain",4.9,0,1,1,1,0,1,1,0,1,1,31.0,"Carrer del Teide, 26, Barcelona",True,41.4314875,2.168236,08031,Horta,Horta - Guinardo
KARISMA LATINA,"Calle Florida, 32, BAJO, 08905 Barcelona, Spain",3.8,0,1,1,1,0,1,1,0,1,1,44.0,"Calle Florida, 32, BAJO, Barcelona",,41.3710889,2.1131671,08905,,
Restaurant chino Dalin y Vanessa...bar,"C/ de la Diputació, 08013 Barcelona, Spain",4.2,0,1,0,1,0,0,0,0,1,1,144.0,"Carrer de la Diputació, Barcelona",,41.3972703,2.1765226,08013,El Fort Pienc,Eixample
NOW - Not Only Wine,"Carrer d'Hercegovina, 28, 08006 Barcelona, Spain",3.9,1,1,1,1,0,1,1,0,1,1,887.0,"Carrer d'Hercegovina, 28, Barcelona",True,41.4032103,2.1402163,08006,El Farro,Sarria - Sant Gervasi
La Quesadilla by Fernando Sanz,"C/ de Sardenya, 386, Bajos, 08025 Barcelona, Spain",4.7,0,1,1,1,0,1,1,0,1,1,642.0,"Carrer de Sardenya, 386, Bajos, Barcelona",True,41.4065525,2.1693336,08025,Camps d'en Grassot i Gracia Nova,Gracia
BARCELONA BUGUI SL,"Av. Diagonal, 633 P, BA, 08028 Barcelona, Spain",3.8,0,1,1,1,1,1,1,0,1,1,1370.0,"Avenida Diagonal, 633 P, BA, Barcelona",True,41.38712,2.12428,08028,Les Corts,Les Corts
La Bottega di Lapio,"C/ de Torrijos, 53, 08012 Barcelona, Spain",3.9,1,1,1,0,0,1,1,0,1,1,73.0,"Carrer de Torrijos, 53, Barcelona",True,41.4045011,2.1576056,08012,Vila de Gracia,Gracia
D'ARGENTO BARCELONA,"Pg. de St. Joan, 72, local 1, 08009 Barcelona, Spain",4.4,1,1,0,1,1,1,1,0,1,1,458.0,"Passeig de Sant Joan, 72, local 1, Barcelona",True,41.3971413,2.1730788,08009,Dreta Eixample,Eixample
KIRPA Pizza & Pan,"C/ de Ramón y Cajal, 106, Bajos, 08012 Barcelona, Spain",3.7,1,0,0,0,0,0,0,0,0,1,6.0,"Carrer de Ramón y Cajal, 106, Bajos, Barcelona",True,41.4040601,2.1613234,08012,Vila de Gracia,Gracia
Revoltosa Beach,"Rambla del jardins de Sants, Plaça de Sants, 1, 08028 Barcelona, Spain",4.2,0,1,0,1,0,1,1,0,1,1,13.0,"Rambla del jardins de Sants, Plaça de Sants, 1, Barcelona",True,41.3743576,2.1345807,08028,Les Corts,Les Corts
Mexiterranee Restaurante,"Gran Via de les Corts Catalanes, 557, 08011 Barcelona, Spain",,0,1,1,1,0,1,1,0,1,0,,"Gran Via de les Corts Catalanes, 557, Barcelona",True,41.3841813,2.1608568,08011,Esquerra Eixample,Eixample
Sabor remei kebabish,"Carrer de la Mare de Déu del Remei, 31, 08004 Barcelona, Spain",4.9,1,1,0,1,0,1,1,0,0,1,11.0,"Carrer de la Mare de Déu del Remei, 31, Barcelona",,41.37294860000001,2.1573589,08004,Poble Sec,Sants - Montjuic
Forno d’Oro,"Gran Via de les Corts Catalanes, 301, 08014 Barcelona, Spain",4.4,1,1,1,1,0,1,1,0,1,1,633.0,"Gran Via de les Corts Catalanes, 301, Barcelona",True,41.3721385,2.1448575,08014,La Bordeta - Les Corts,Sants - Montjuic
Figli del Vesuvio,"Carrer de Portbou, 33-35, 08028 Barcelona, Spain",4.7,1,1,0,1,0,1,1,0,1,1,486.0,"Carrer de Portbou, 33-35, Barcelona",True,41.3768672,2.126527499999999,08028,Les Corts,Les Corts
Restaurant Japonès Yamado,"C. de Floridablanca, 79, 08015 Barcelona, Spain",4.2,0,1,1,1,0,1,1,0,1,1,1102.0,"Carrer de Floridablanca, 79, Barcelona",True,41.3791163,2.1591001,08015,Nova Esquerra Exiample - Sant Antoni,Eixample
Dumplings,"Carrer de la Creu Coberta, 48, 08014 Barcelona, Spain",4.5,1,1,0,1,0,1,1,1,1,1,1306.0,"Carrer de la Creu Coberta, 48, Barcelona",True,41.37531389999999,2.1460753,08014,La Bordeta - Les Corts,Sants - Montjuic
La Graella (tapas y platos),"C/ de la Diputació, 90, 08015 Barcelona, Spain",4.6,1,1,0,1,0,1,1,0,1,1,90.0,"Carrer de la Diputació, 90, Barcelona",True,41.38072919999999,2.154503199999999,08015,Nova Esquerra Exiample - Sant Antoni,Eixample
Bar Pintxin,"Travessera de Gràcia, 449, 451, 08025 Barcelona, Spain",4.4,0,1,0,1,1,1,1,0,1,0,139.0,"Travessera de Gràcia, 449, 451, Barcelona",True,41.4116117,2.1735901,08025,Camps d'en Grassot i Gracia Nova,Gracia
Bar del Club de Petanca El Carmelo,"Carrer de la Gran Vista, 27, 08032 Barcelona, Spain",4.2,0,1,1,1,0,0,1,0,1,0,459.0,"Carrer de la Gran Vista, 27, Barcelona",,41.42015149999999,2.163644399999999,08032,La Font d'en Fargues,Horta - Guinardo
Bar Restaurant Mio Cid,"C/ de Sant Pere Més Baix, 4, 08003 Barcelona, Spain",4.4,0,1,1,1,1,1,1,0,1,1,121.0,"Carrer de Sant Pere Més Baix, 4, Barcelona",,41.38633569999999,2.1760649,08003,Barceloneta,Ciutat Vella
Restaurant Embat,"C/ de Mallorca, 304, 08037 Barcelona, Spain",4.6,0,1,1,1,0,1,1,0,1,1,439.0,"Carrer de Mallorca, 304, Barcelona",False,41.39701079999999,2.1671,08037,Dreta Eixample,Eixample
Restaurante Alboroque,"C/ de Mallorca, 304, 08037 Barcelona, Spain",5.0,0,1,0,0,0,0,0,0,0,0,1.0,"Carrer de Mallorca, 304, Barcelona",,41.39702820000001,2.166984199999999,08037,Dreta Eixample,Eixample
Pizzolu,"C. del Call, 19, 08002 Barcelona, Spain",,0,1,0,0,0,0,0,0,0,0,,"Carrer del Call, 19, Barcelona",,41.3825297,2.1764069,08002,Barri Gotic,Ciutat Vella
La Taqueria,"C. de Pujades, 172, bajos, 08005 Barcelona, Spain",4.3,1,1,1,1,0,1,1,1,1,1,1845.0,"Carrer de Pujades, 172, bajos, Barcelona",True,41.4008761,2.1998373,08005,Poblenou,Sant Marti
اكلة خفيفة,"Rambla del Raval, 51, 08001 Barcelona, Spain",,0,1,0,0,0,0,0,0,0,0,,"Rambla del Raval, 51, Barcelona",,41.3780761,2.1705382,08001,El Raval,Ciutat Vella
Restaurante La Tata,"Carrer de Calàbria, 69, 08015 Barcelona, Spain",4.3,1,1,1,1,1,1,1,0,1,1,1163.0,"Carrer de Calàbria, 69, Barcelona",,41.3781094,2.1568522,08015,Nova Esquerra Exiample - Sant Antoni,Eixample
DINE IN DARK,"08001 Barcelona, Spain",,0,1,0,0,0,0,0,0,0,0,,Barcelona,,41.3794528,2.1655492,08001,El Raval,Ciutat Vella
Restaurant Kintsugi,"C/ de Còrsega, 289, 08008 Barcelona, Spain",4.4,0,1,1,1,0,1,1,0,1,0,34.0,"Carrer de Còrsega, 289, Barcelona",True,41.39457760000001,2.1564782,08008,Antiga Esquerra Eixample,Eixample
El Fornet,"Av. de Sarrià, 1, 3, 08036 Barcelona, Spain",3.6,0,1,0,1,1,0,1,0,0,1,490.0,"Avinguda de Sarrià, 1, 3, Barcelona",True,41.389793,2.147619,08036,Esquerra Eixample,Eixample
Pim Pam,"Carrer d'Agramunt, 15, 08023 Barcelona, Spain",4.2,1,1,0,1,0,1,1,0,1,1,199.0,"Carrer d'Agramunt, 15, Barcelona",True,41.40944530000001,2.1459771,08023,El Coll,Gracia
"Bar/Restaurante, Felicia","C/ de Lleida, 29, 08004 Barcelona, Spain",4.1,0,1,1,1,1,0,1,0,1,1,47.0,"Carrer de Lleida, 29, Barcelona",,41.3726604,2.1554354,08004,Poble Sec,Sants - Montjuic
Mora,"C/ del Rosselló, 495, 08025 Barcelona, Spain",3.4,0,1,0,1,1,1,1,0,1,1,128.0,"Carrer del Rosselló, 495, Barcelona",,41.4077672,2.1763307,08025,Camps d'en Grassot i Gracia Nova,Gracia
Buena Vista Restaurant/Bar/Live Music,"Moll de Gregal, 26, 08005 Barcelona, Spain",3.8,0,1,0,0,0,0,0,0,0,0,42.0,"Moll de Gregal, 26, Barcelona",,41.387789,2.201708,08005,Poblenou,Sant Marti
La Flor del Nord,"Pg. de Colom, 10, 08002 Barcelona, Spain",3.8,0,1,1,1,1,1,1,0,1,1,849.0,"Passeig de Colom, 10, Barcelona",True,41.380114,2.1808026,08002,Barri Gotic,Ciutat Vella
Bar Restaurant El Racó De La Bona Cuina,"C. de Cartagena, 246, 08025 Barcelona, Spain",3.7,0,1,0,1,0,1,1,0,1,1,61.0,"Carrer de Cartagena, 246, Barcelona",,41.4076529,2.1791882,08025,Camps d'en Grassot i Gracia Nova,Gracia
Partenope #081,"C. de los Castillejos, 158, 08013 Barcelona, Spain",5.0,1,1,0,0,0,0,0,0,0,1,9.0,"Carrer de los Castillejos, 158, Barcelona",True,41.4009214,2.1862485,08013,El Fort Pienc,Eixample
Cafeteria Restaurant K-nos,"C/ de Tarragona, 101, 08014 Barcelona, Spain",3.9,0,1,1,1,0,0,0,0,1,1,222.0,"Carrer de Tarragona, 101, Barcelona",True,41.3763088,2.1480195,08014,La Bordeta - Les Corts,Sants - Montjuic
Restaurant La Copa,"Carrer de Gandesa, 12, 08028 Barcelona, Spain",4.0,0,1,0,0,0,0,0,0,0,0,1.0,"Carrer de Gandesa, 12, Barcelona",,41.3883292,2.1303346,08028,Les Corts,Les Corts
Yango,"La Rambla, 91, 08002 Barcelona, Spain",3.7,0,1,0,0,0,0,0,0,0,0,6.0,"La Rambla, 91, Barcelona",,41.3821376,2.1720397,08002,Barri Gotic,Ciutat Vella
Bar Restaurante SOL,"C/ de València, 94, 08015 Barcelona, Spain",4.4,0,1,1,1,0,1,1,0,1,1,44.0,"Carrer de València, 94, Barcelona",,41.38265560000001,2.1502229,08015,Nova Esquerra Exiample - Sant Antoni,Eixample
Aspic,"C/ del Dr. Ferran, 23, 08034 Barcelona, Spain",4.2,0,1,1,1,0,1,1,0,1,1,231.0,"Carrer del Doctor Ferran, 23, Barcelona",True,41.3895141,2.1243672,08034,Pedralbes,Les Corts
Ametller Origen,"C/ Gran de Gràcia, 15, 08012 Barcelona, Spain",3.8,1,0,0,0,0,0,0,0,0,0,47.0,"Carrer Gran de Gràcia, 15, Barcelona",True,41.3982928,2.157045499999999,08012,Vila de Gracia,Gracia
Bar restaurant iberia,"Pg. de Fabra i Puig, 94, 08030 Barcelona, Spain",4.2,1,1,1,1,1,1,1,0,1,1,452.0,"Passeig de Fabra i Puig, 94, Barcelona",True,41.43028289999999,2.1854991,08030,San Andres Palomar,Sant Andreu
La Lluna,"C/ de Santa Anna, 20, 08002 Barcelona, Spain",4.2,0,1,1,1,1,1,1,0,1,0,1899.0,"Carrer de Santa Anna, 20, Barcelona",True,41.38529560000001,2.171631000000001,08002,Barri Gotic,Ciutat Vella
HANA Grill & Bowl,"C/ de la Diputació, 309, Bajos, 08009 Barcelona, Spain",4.5,0,1,1,1,0,1,1,1,1,1,1220.0,"Carrer de la Diputació, 309, Bajos, Barcelona",,41.39293329999999,2.1702471,08009,Dreta Eixample,Eixample
Sushi Way,"C/ de Rocafort, 257, 08029 Barcelona, Spain",4.5,1,1,0,1,0,1,1,0,0,1,23.0,"Carrer de Rocafort, 257, Barcelona",,41.385961,2.1440128,08029,Sarria,Sarria - Sant Gervasi
Viñals 1906,"Av. Diagonal, 557, 08029 Barcelona, Spain",4.2,1,0,0,0,0,0,0,0,0,1,116.0,"Avinguda Diagonal, 557, Barcelona",True,41.3895191,2.1354223,08029,Sarria,Sarria - Sant Gervasi
Liuyishou Hotpot Restaurant,"C/ del Consell de Cent, 303, 08007 Barcelona, Spain",4.4,1,1,1,1,0,1,1,1,1,1,1401.0,"Carrer del Consell de Cent, 303, Barcelona",True,41.3888361,2.1624623,08007,Antiga Esquerra Eixample,Eixample
La Capricciosa,"C/ d'Entença, 206, 08029 Barcelona, Spain",4.3,1,1,1,1,0,1,1,0,1,1,716.0,"Carrer d'Entença, 206, Barcelona",True,41.3853561,2.143387799999999,08029,Sarria,Sarria - Sant Gervasi
Buenas Migas,"Pl. de la Universitat, 1, 08007 Barcelona, Spain",4.2,0,1,0,1,1,1,1,1,1,1,2022.0,"Plaça de la Universitat, 1, Barcelona",True,41.385259,2.163294,08007,Antiga Esquerra Eixample,Eixample
Buenas Migas,"Plaça del Bonsuccés, 6, Bajo, 08001 Barcelona, Spain",4.2,1,1,0,1,1,1,1,1,1,1,1927.0,"Plaça del Bonsuccés, 6, Bajo, Barcelona",,41.383817,2.169634,08001,El Raval,Ciutat Vella
Enrique Tomás Sagrada Familia - Jamonería Gourmet,"Carrer de la Marina, 261, 08025 Barcelona, Spain",4.0,1,1,1,1,1,1,1,0,1,1,302.0,"Carrer de la Marina, 261, Barcelona",True,41.4047663,2.1739303,08025,Camps d'en Grassot i Gracia Nova,Gracia
Babylon,"Av. de Madrid, 198, 08028 Barcelona, Spain",4.0,0,1,0,1,0,0,0,0,0,1,56.0,"Avinguda de Madrid, 198, Barcelona",,41.3809832,2.1335239,08028,Les Corts,Les Corts
Restaurant Maragata,"Carrer de Calàbria, 64, 08015 Barcelona, Spain",3.7,0,1,0,0,0,0,0,0,0,0,3.0,"Carrer de Calàbria, 64, Barcelona",,41.3781817,2.1572813,08015,Nova Esquerra Exiample - Sant Antoni,Eixample
Taverna la bauxa,"Carrer del Vallespir, 23, 08014 Barcelona, Spain",4.6,0,1,1,1,0,1,1,0,1,1,656.0,"Carrer del Vallespir, 23, Barcelona",False,41.378669,2.1374785,08014,La Bordeta - Les Corts,Sants - Montjuic
liangpierxiansheng凉皮先生,"C/ de Huelva, 70, 08020 Barcelona, Spain",3.0,1,1,1,1,0,1,1,0,1,1,61.0,"Carrer de Huelva, 70, Barcelona",True,41.4172539,2.1962498,08020,La Verneda - Sant Marti de Provençals,Sant Marti
Troppopizza,"Av. del Paral·lel, 170, 08015 Barcelona, Spain",3.0,1,1,1,1,0,1,1,1,1,1,24.0,"Avinguda del Paral·lel, 170, Barcelona",True,41.3752073,2.1558848,08015,Nova Esquerra Exiample - Sant Antoni,Eixample
Alain Pizza Clot,"Carrer de Rogent, 2, 08026 Barcelona, Spain",4.0,1,1,0,0,0,1,0,0,0,1,69.0,"Carrer de Rogent, 2, Barcelona",True,41.40869740000001,2.186451,08026,Camp de l'arpa,Sant Marti
Clara Zabala,"C/ d'Aragó, 42, 08015 Barcelona, Spain",,0,1,0,0,0,0,0,0,0,0,,"Carrer d'Aragó, 42, Barcelona",,41.3810484,2.150388,08015,Nova Esquerra Exiample - Sant Antoni,Eixample
"Fenícia, Restaurant Libanès","Pg. de Sant Antoni, 9, 08014 Barcelona, Spain",4.6,1,1,1,1,1,1,1,1,1,1,4819.0,"Passeig de Sant Antoni, 9, Barcelona",True,41.3767467,2.136527800000001,08014,La Bordeta - Les Corts,Sants - Montjuic
El Sabor de Picornell,"Av. de l'Estadi, 30, 08038 Barcelona, Spain",3.8,0,1,1,1,1,1,1,0,1,1,41.0,"Avinguda de l'Estadi, 30, Barcelona",True,41.36597750000001,2.150617,08038,Montjuic,Sants - Montjuic
El Caserón,"C.de Berlín, 71, 08029 Barcelona, Spain",4.3,0,1,1,1,1,1,1,0,1,1,744.0,"Carrer de Berlín, 71, Barcelona",True,41.3838864,2.1397354,08029,Sarria,Sarria - Sant Gervasi
The New Orleans Coffee & Tea Company,"Carrer Pere d'Artés, 10, 08031 Barcelona, Spain",4.2,0,1,0,1,1,0,0,0,1,1,1319.0,"Carrer Pere d'Artés, 10, Barcelona",,41.4305436,2.1725026,08031,Horta,Horta - Guinardo
Juliette gastro bar,"C/ d'Aragó, 352, 08009 Barcelona, Spain",,0,1,0,1,0,1,1,0,1,1,,"Carrer d'Aragó, 352, Barcelona",,41.3964666,2.1708872,08009,Dreta Eixample,Eixample
Descuina't (Menjar Vegà per Emportar),"Plaça Revolució de Setembre 1868, 15, 08012 Barcelona, Spain",5.0,1,0,0,0,0,0,1,1,0,1,71.0,"Plaça Revolució de Setembre 1868, 15, Barcelona",,41.4025403,2.158086,08012,Vila de Gracia,Gracia
Portonovo,"Passeig de Joan de Borbo, Conte de Barcelona, 14, 08003 Barcelona, Spain",2.8,0,1,1,1,1,1,1,0,1,1,385.0,"Passeig de Joan de Borbo, Conte de Barcelona, 14, Barcelona",True,41.3802414,2.1876309,08003,Barceloneta,Ciutat Vella
Restauramte Port Nou,"Pg. de Joan de Borbó, 14, 08003 Barcelona, Spain",1.8,0,1,1,1,0,1,1,0,1,1,83.0,"Passeig de Joan de Borbó, 14, Barcelona",True,41.3802438,2.1875288,08003,Barceloneta,Ciutat Vella
Las Fernández,"Carrer de les Carretes, 11, 08002 Barcelona, Spain",4.5,1,1,1,1,0,1,1,0,1,1,572.0,"Carrer de les Carretes, 11, Barcelona",True,41.37815929999999,2.1663662,08002,Barri Gotic,Ciutat Vella
Lasarte,"C/ de Mallorca, 259, 08008 Barcelona, Spain",4.7,0,1,1,1,0,1,1,0,1,0,1023.0,"Carrer de Mallorca, 259, Barcelona",True,41.39361109999999,2.1619444,08008,Antiga Esquerra Eixample,Eixample
Cycling Tour Barcelona (Bike & Photo-Shooting),"Plaça de George Orwell, 08002 Barcelona, Spain",5.0,0,0,0,0,0,0,0,0,0,0,179.0,"Plaça de George Orwell, Barcelona",,41.3804838,2.1772875,08002,Barri Gotic,Ciutat Vella
A Nosa Terra Bocadillos Y Tapas,"C. de Viladomat, 155, 08015 Barcelona, Spain",,0,1,0,0,0,0,0,0,0,0,,"Carrer de Viladomat, 155, Barcelona",,41.381961,2.1541544,08015,Nova Esquerra Exiample - Sant Antoni,Eixample
Restaurant Sucursal Aceitera,"C/ del Comte Borrell, 36, 08015 Barcelona, Spain",4.1,0,1,1,1,1,1,1,0,1,1,2010.0,"Carrer del Comte Borrell, 36, Barcelona",True,41.3771762,2.1631695,08015,Nova Esquerra Exiample - Sant Antoni,Eixample
La Llesca de Bailèn. Bar restaurant cafeteria,"C/ de Bailèn, 31, 08010 Barcelona, Spain",4.5,0,1,1,1,0,1,1,0,1,1,75.0,"Carrer de Bailèn, 31, Barcelona",True,41.3931461,2.1753768,08010,Dreta Eixample,Eixample
Les dues Sicílies,"C/ dels Carders, 22, 08003 Barcelona, Spain",4.3,1,1,1,1,0,1,1,1,1,1,1465.0,"Carrer dels Carders, 22, Barcelona",True,41.38660369999999,2.1802758,08003,Barceloneta,Ciutat Vella
Restaurant O Retorninho 2,"Carrer del Comte d'Urgell, 216, 08036 Barcelona, Spain",4.3,0,1,1,1,1,1,1,0,1,1,2195.0,"Carrer del Comte d'Urgell, 216, Barcelona",True,41.3888302,2.1501058,08036,Esquerra Eixample,Eixample
Candela Food S.L.,"C/ del Clot, 49, 08018 Barcelona, Spain",,0,1,0,1,0,0,1,0,1,0,,"Carrer del Clot, 49, Barcelona",,41.4077985,2.1880254,08018,El Clot,Sant Marti
Omu - Kitchen,"C. de Sant Pere d'Abanto, 7, LOCAL 2, 08014 Barcelona, Spain",5.0,1,1,0,0,0,1,1,0,0,1,1.0,"Carrer de Sant Pere d'Abanto, 7, LOCAL 2, Barcelona",,41.37135869999999,2.14324,08014,La Bordeta - Les Corts,Sants - Montjuic
Telepizza Tibidabo,"Ctra. de Vallvidrera al Tibidabo, 08035 Barcelona, Spain",1.0,0,0,0,0,0,0,0,0,0,0,1.0,"Carretera de Vallvidrera al Tibidabo, Barcelona",,41.4209605,2.1214165,08035,Sant Genis dels Agudells,Horta - Guinardo
Panxacontents (Els Somiatruites),"Plaça del Mercadal, 1, 08030 Barcelona, Spain",4.7,0,1,1,1,1,0,1,0,1,1,110.0,"Plaça del Mercadal, 1, Barcelona",True,41.4346521,2.1887555,08030,San Andres Palomar,Sant Andreu
Papa Johns Pizza,"Gran Via de les Corts Catalanes, 139, 08014 Barcelona, Spain",3.3,1,1,0,0,0,1,1,0,0,1,546.0,"Gran Via de les Corts Catalanes, 139, Barcelona",True,41.3659401,2.1365152,08014,La Bordeta - Les Corts,Sants - Montjuic
Fresh food,"Fresh Food, C/ de la Mare de Déu de Lorda, 26, Local 1, 08033 Barcelona, Spain",4.9,1,1,0,1,0,1,1,0,0,1,23.0,"Fresh Food, Carrer de la Mare de Déu de Lorda, 26, Local 1, Barcelona",True,41.450725,2.191571199999999,08033,Trinitat - Torre Baro,Nou Barris
Picarn,"Judici 13 bajos, 08003 Barcelona, Spain",3.8,1,1,0,1,0,1,1,0,0,1,183.0,"Judici 13 bajos, Barcelona",True,41.37671400000001,2.190168700000001,08003,Barceloneta,Ciutat Vella
EL OMBU,"C/ del Consell de Cent, 124, 08015 Barcelona, Spain",4.2,0,1,0,1,1,0,1,0,1,1,72.0,"Carrer del Consell de Cent, 124, Barcelona",False,41.381479,2.153124,08015,Nova Esquerra Exiample - Sant Antoni,Eixample
Bar Xènia Restaurant,"08018 Barcelona, Spain",3.7,0,1,0,1,0,0,0,0,1,1,66.0,Spain,,41.39750119999999,2.1930326,08018,El Clot,Sant Marti
Boca Grande,"Passatge de la Concepció, 12, 08008 Barcelona, Spain",4.2,0,1,1,1,1,1,1,0,1,1,3624.0,"Passatge de la Concepció, 12, Barcelona",True,41.3945264,2.1598331,08008,Antiga Esquerra Eixample,Eixample
Electropikal Club & Restaurant,"Rambla del Raval, 8, 08001 Barcelona, Spain",4.0,0,1,1,1,0,1,1,1,1,0,1.0,"Rambla del Raval, 8, Barcelona",True,41.3787744,2.1687047,08001,El Raval,Ciutat Vella
alfons tost,"Passatge de Marimon, 7, 08021 Barcelona, Spain",,0,1,0,0,0,0,1,0,0,1,,"Passatge de Marimon, 7, Barcelona",,41.39437789999999,2.1483049,08021,Les Corts - Sarria,Les Corts
Giro tast,"Av. de Gaudí, 08025 Barcelona, Spain",,0,1,0,1,0,0,1,0,1,1,,"Avinguda de Gaudí, Barcelona",True,41.4077819,2.1742938,08025,Camps d'en Grassot i Gracia Nova,Gracia
Mundixquipa S.L,"Carrer de Gavà, 42, 08014 Barcelona, Spain",5.0,0,1,0,1,0,0,1,0,1,1,2.0,"Carrer de Gavà, 42, Barcelona",True,41.3717721,2.1404592,08014,La Bordeta - Les Corts,Sants - Montjuic
Cafuné Café,"C/ d'Aragó, 623, 08026 Barcelona, Spain",4.9,1,1,0,1,0,0,1,0,1,1,303.0,"Carrer d'Aragó, 623, Barcelona",True,41.4095319,2.1875795,08026,Camp de l'arpa,Sant Marti
끼메끼메 타파스,"Carrer del Poeta Cabanyes, 25, 08004 Barcelona, Spain",3.2,0,1,0,0,0,0,0,0,0,0,6.0,"Carrer del Poeta Cabanyes, 25, Barcelona",,41.3739062,2.1656066,08004,Poble Sec,Sants - Montjuic
BODEGA 1940,"Carrer de Panissars, 30, 08028 Barcelona, Spain",4.8,0,1,1,1,1,1,1,0,1,1,236.0,"Carrer de Panissars, 30, Barcelona",True,41.3766682,2.133334000000001,08028,Les Corts,Les Corts
Bar Thales,"Carrer dels Templers, 16, 08002 Barcelona, Spain",4.2,0,1,0,1,0,0,1,0,1,1,413.0,"Carrer dels Templers, 16, Barcelona",,41.38185,2.1782816,08002,Barri Gotic,Ciutat Vella
Cepsa,"C/ del Clot, 2, 08018 Barcelona, Spain",4.1,0,0,0,0,0,0,0,0,0,0,149.0,"Carrer del Clot, 2, Barcelona",True,41.405779,2.187364,08018,El Clot,Sant Marti
Bufet de Cuina Carol,"Carrer de la Constitució, 96, bajo 2, 08014 Barcelona, Spain",4.3,0,0,0,1,0,0,0,1,0,1,217.0,"Carrer de la Constitució, 96, bajo 2, Barcelona",True,41.3697274,2.1348268,08014,La Bordeta - Les Corts,Sants - Montjuic
El Punt de Balmes,"08006, C/ de Balmes, 279, 08006 Barcelona, Spain",4.1,0,1,0,1,0,0,1,0,1,1,49.0,"08006, Carrer de Balmes, 279, Barcelona",,41.4007672,2.1479747,08006,El Farro,Sarria - Sant Gervasi
Taberna Capitán Sandía,"Pg. de Fabra i Puig, 482, 08042 Barcelona, Spain",4.3,0,1,1,1,0,1,1,0,1,0,13.0,"Passeig de Fabra i Puig, 482, Barcelona",True,41.4387054,2.1664307,08042,Canyelles - Roquetes,Nou Barris
Marisqueria,"C/ de Pau Claris, 169, 08037 Barcelona, Spain",4.0,0,1,0,0,0,0,0,0,0,0,1.0,"Carrer de Pau Claris, 169, Barcelona",,41.39559870000001,2.1631623,08037,Dreta Eixample,Eixample
Singlot,"C/ de l'Escorial, 50, 08024 Barcelona, Spain",3.7,0,1,1,1,1,1,1,0,1,1,431.0,"Carrer de l'Escorial, 50, Barcelona",True,41.40773719999999,2.1613058,08024,Gracia - Can Baro,Gracia
Les Filles Cafè,"Carrer de Minerva, 2, 08006 Barcelona, Spain",4.0,1,1,1,1,1,1,1,1,1,1,1093.0,"Carrer de Minerva, 2, Barcelona",True,41.3962051,2.1568945,08006,El Farro,Sarria - Sant Gervasi
City Doner Kebap,"C/ de Rocafort, 08029 Barcelona, Spain",4.2,0,1,0,1,0,1,1,0,0,1,496.0,"Carrer de Rocafort, Barcelona",True,41.3831412,2.1479077,08029,Sarria,Sarria - Sant Gervasi
concepto nonna,"C. de Villarroel, 245, 08036 Barcelona, Spain",4.8,0,1,0,0,0,0,0,0,0,0,50.0,"Carrer de Villarroel, 245, Barcelona",,41.3917453,2.1479208,08036,Esquerra Eixample,Eixample
The Burger Maker,"Plaça de la Gardunya, 2, 08001 Barcelona, Spain",4.8,1,1,1,1,0,1,1,0,0,1,293.0,"Plaça de la Gardunya, 2, Barcelona",True,41.3817867,2.1706436,08001,El Raval,Ciutat Vella
Bar san Andres,"Plaça de l'Estació, 4, 08030 Barcelona, Spain",4.4,0,1,0,1,1,0,1,0,1,1,60.0,"Plaça de l'Estació, 4, Barcelona",,41.4359498,2.192552999999999,08030,San Andres Palomar,Sant Andreu
Com a Casa,"Carrer de Llull, 198, 08005 Barcelona, Spain",4.0,1,0,0,0,0,0,0,0,0,1,27.0,"Carrer de Llull, 198, Barcelona",True,41.4011196,2.202571899999999,08005,Poblenou,Sant Marti
Federal Cafè Gòtic,"Ptge. de la Pau, 11, 08002 Barcelona, Spain",4.1,1,1,0,1,1,1,1,1,1,1,2803.0,"Passatge de la Pau, 11, Barcelona",True,41.3780022,2.1777241,08002,Barri Gotic,Ciutat Vella
BELLILLO Pizzeria Napoletana,"C. d'Enric Granados, 15, 08007 Barcelona, Spain",4.4,1,1,1,1,0,1,1,0,1,1,2110.0,"Carrer d'Enric Granados, 15, Barcelona",True,41.3879027,2.1619416,08007,Antiga Esquerra Eixample,Eixample
El Bar del Majestic,"Pg. de Gràcia, 68, 08007 Barcelona, Spain",,0,1,1,1,0,0,0,0,1,0,,"Passeig de Gràcia, 68, Barcelona",True,41.3935179,2.1639813,08007,Antiga Esquerra Eixample,Eixample
Super Döner,"Carrer de la Riera Alta, 65, 08001 Barcelona, Spain",3.6,1,1,0,0,0,1,1,0,0,1,96.0,"Carrer de la Riera Alta, 65, Barcelona",,41.3803494,2.164056399999999,08001,El Raval,Ciutat Vella
Aviram i Caça Maria Rosa,"Parada 24. Mercat de Sant Antoni, Carrer del Comte d'Urgell, nº1, 08011 Barcelona, Spain",5.0,0,0,0,1,0,0,0,0,0,1,4.0,"Parada 24. Mercat de Sant Antoni, Carrer del Comte d'Urgell, nº1, Barcelona",True,41.37898190000001,2.1619888,08011,Esquerra Eixample,Eixample
Super Vegan,"Gran Via de les Corts Catalanes, 373 Local, S19, 08015 Barcelona, Spain",4.7,1,1,1,1,0,1,1,1,1,1,1013.0,"Gran Via de les Corts Catalanes, 373 Local, S19, Barcelona",True,41.3764477,2.1489188,08015,Nova Esquerra Exiample - Sant Antoni,Eixample
CARTAGENA DONER KEBAB y PIZZERIA (HALAL),"C. de Cartagena, 170, 08013 Barcelona, Spain",4.1,1,1,0,0,0,1,1,0,0,1,25.0,"Carrer de Cartagena, 170, Barcelona",,41.40463649999999,2.1831675,08013,El Fort Pienc,Eixample
Mont Bar,"C/ de la Diputació, 220, 08011 Barcelona, Spain",4.5,0,1,1,1,0,1,1,0,1,0,1228.0,"Carrer de la Diputació, 220, Barcelona",True,41.38622,2.161686,08011,Esquerra Eixample,Eixample
Mucho cielo y mucho mar,"C/ de Salou, 12, 08014 Barcelona, Spain",4.8,0,1,1,1,0,1,1,0,1,1,300.0,"Carrer de Salou, 12, Barcelona",True,41.37604109999999,2.1377953,08014,La Bordeta - Les Corts,Sants - Montjuic
Tienda y Distribuidora de cerveza 2D2Dspuma ESTO NO ES EL BAR,"Carrer de la Manigua, 4, 08027 Barcelona, Spain",4.6,1,0,0,0,0,0,0,0,0,0,202.0,"Carrer de la Manigua, 4, Barcelona",,41.422365,2.179386,08027,El Congres - Navas,Sant Andreu
El Pibe,"Avinguda Meridiana, 430, 08030 Barcelona, Spain",4.0,1,1,0,1,1,1,1,0,1,1,1133.0,"Avinguda Meridiana, 430, Barcelona",,41.4335077,2.1837086,08030,San Andres Palomar,Sant Andreu
Restaurante Da Hao Men (since 2002),"C. de l'Energia, 18, 08038 Barcelona, Spain",3.9,1,1,1,1,0,1,1,0,1,1,394.0,"Carrer de l'Energia, 18, Barcelona",True,41.3587249,2.1362819,08038,Montjuic,Sants - Montjuic
Dsushi,"C. d'Amèrica, 6, 08041 Barcelona, Spain",2.6,1,1,0,0,0,0,0,0,0,0,5.0,"Carrer d'Amèrica, 6, Barcelona",,41.4152071,2.1786662,08041,El Guinardo,Horta - Guinardo
Xarcuteria García,"Carrer de Bartrina, 13, 08030 Barcelona, Spain",4.8,0,0,0,0,0,0,0,0,0,1,73.0,"Carrer de Bartrina, 13, Barcelona",True,41.44067950000001,2.1866612,08030,San Andres Palomar,Sant Andreu
La Maison Belge Brasserie,"Rambla del Brasil, 55, 08028 Barcelona, Spain",4.6,0,1,0,1,0,0,0,0,0,0,378.0,"Rambla del Brasil, 55, Barcelona",True,41.3787104,2.1289742,08028,Les Corts,Les Corts
L'art de la pinsa,"C/ de l'Art, 4, 08041 Barcelona, Spain",4.9,1,1,1,0,0,1,0,0,0,1,99.0,"Carrer de l'Art, 4, Barcelona",,41.4217222,2.1789932,08041,El Guinardo,Horta - Guinardo
Domino's Pizza,"C/ Major de Sarrià, 113, 08017 Barcelona, Spain",3.4,1,1,0,0,0,0,0,0,0,1,216.0,"Carrer Major de Sarrià, 113, Barcelona",,41.40052999999999,2.12085,08017,Vallvidrera,Sarria - Sant Gervasi
Asador Casa Juaco,"Ctra. Horta a Cerdanyola, km 8, km 8, 08035 Barcelona, Spain",3.8,0,1,1,1,1,1,1,0,1,1,1869.0,"Carretera Horta a Cerdanyola, km 8, km 8, Barcelona",True,41.44772409999999,2.142677,08035,Sant Genis dels Agudells,Horta - Guinardo
Nachos Stampi,"Carrer del Planeta, 18, 08012 Barcelona, Spain",,0,1,0,0,0,0,0,0,0,0,,"Carrer del Planeta, 18, Barcelona",,41.4020154,2.1570969,08012,Vila de Gracia,Gracia
Burger King,"Metro Passeig De Gracia, C/ d'Aragó, 259, 08007 Barcelona, Spain",3.2,1,1,0,1,0,1,1,0,0,1,1886.0,"Metro Passeig De Gracia, Carrer d'Aragó, 259, Barcelona",True,41.39185909999999,2.1640299,08007,Antiga Esquerra Eixample,Eixample
Café Roslin,"Carrer de Caballero, 67, 08014 Barcelona, Spain",4.1,1,1,1,1,1,0,1,0,1,1,222.0,"Carrer de Caballero, 67, Barcelona",True,41.3833333,2.1369307,08014,La Bordeta - Les Corts,Sants - Montjuic
boka Arenas,"Gran Via de les Corts Catalanes, 373 local, S20, 08015 Barcelona, Spain",3.9,0,1,0,1,1,1,1,0,1,1,1168.0,"Gran Via de les Corts Catalanes, 373 local, S20, Barcelona",True,41.3761006,2.1492048,08015,Nova Esquerra Exiample - Sant Antoni,Eixample
GRILL DÖNER PIZZERIA,"Carrer de Virgili, 6, local 1, 08030 Barcelona, Spain",4.2,1,1,0,1,0,1,1,0,0,1,134.0,"Carrer de Virgili, 6, local 1, Barcelona",True,41.4284314,2.1937438,08030,San Andres Palomar,Sant Andreu
Blau Cucina e Caffé,"Carrer de Freixures, 5, 08003 Barcelona, Spain",4.6,0,1,1,1,1,1,1,1,1,1,875.0,"Carrer de Freixures, 5, Barcelona",,41.3857282,2.1783605,08003,Barceloneta,Ciutat Vella
La Rustiteka,"C/ de Huelva, 59, 08020 Barcelona, Spain",3.8,1,1,0,0,0,0,0,0,0,1,34.0,"Carrer de Huelva, 59, Barcelona",,41.4173862,2.1959948,08020,La Verneda - Sant Marti de Provençals,Sant Marti
Fly,"Carrer del Rector Ubach, 53, 08021 Barcelona, Spain",4.4,1,1,1,1,0,1,1,1,1,1,86.0,"Carrer del Rector Ubach, 53, Barcelona",,41.3967636,2.1420129,08021,Les Corts - Sarria,Les Corts
Señora Dolores. Bar de tapas y vinos naturales,"C/ del Marquès de Campo Sagrado, 27, 08015 Barcelona, Spain",4.5,0,1,1,1,0,0,1,0,1,0,48.0,"Carrer del Marquès de Campo Sagrado, 27, Barcelona",True,41.37666110000001,2.1647298,08015,Nova Esquerra Exiample - Sant Antoni,Eixample
NAP Mar,"C/ del Baluard, 69, 08003 Barcelona, Spain",4.5,1,1,1,1,0,1,1,1,1,1,2545.0,"Carrer del Baluard, 69, Barcelona",False,41.3774756,2.190022700000001,08003,Barceloneta,Ciutat Vella
Flori's Granja 2,"08004 Barcelona, Spain",4.6,0,1,0,1,0,0,0,0,1,0,5.0,Spain,,41.3748165,2.1554383,08004,Poble Sec,Sants - Montjuic
Restaurante La Maduixa,"Carrer de Dolors Masferrer, 18, 08028 Barcelona, Spain",4.2,0,1,1,1,0,0,1,0,1,1,288.0,"Carrer de Dolors Masferrer, 18, Barcelona",True,41.38536019999999,2.1289284,08028,Les Corts,Les Corts
Tony's Art I Sa Cafeteria Restaurant,"08022 Barcelona, Spain",5.0,0,1,0,0,0,0,0,0,0,0,2.0,Spain,,41.40887180000001,2.1349791,08022,Sarria - La Bonanova,Les Corts
La Polpa,"C. d'Enric Granados, 69, 08008 Barcelona, Spain",3.8,0,1,1,1,0,1,1,0,1,0,1084.0,"Carrer d'Enric Granados, 69, Barcelona",,41.3911538,2.157673899999999,08008,Antiga Esquerra Eixample,Eixample
Food Filosofy S.l.,"Carrer d'En Mònec, 15, 08003 Barcelona, Spain",3.5,0,1,0,0,0,0,1,0,0,1,4.0,"Carrer d'En Mònec, 15, Barcelona",,41.3885362,2.1776339,08003,Barceloneta,Ciutat Vella
Manbok Restaurant Corea,"C/ d'Ausiàs Marc, 79, 08013 Barcelona, Spain",4.3,1,1,1,1,0,1,1,1,0,1,810.0,"Carrer d'Ausiàs Marc, 79, Barcelona",,41.3943209,2.1793917,08013,El Fort Pienc,Eixample
Taca de cafè,"Carrer de la Riera de Sant Miquel, 77, 08006 Barcelona, Spain",4.6,0,1,1,1,1,0,1,0,1,1,176.0,"Carrer de la Riera de Sant Miquel, 77, Barcelona",,41.39864879999999,2.154193,08006,El Farro,Sarria - Sant Gervasi
Braseria Els Quinze,"Carrer de la Marquesa de Caldes de Montbui, 1, 08032 Barcelona, Spain",3.8,1,1,0,0,0,0,1,0,0,1,79.0,"Carrer de la Marquesa de Caldes de Montbui, 1, Barcelona",,41.4254469,2.1753185,08032,La Font d'en Fargues,Horta - Guinardo
Domino's Pizza,"C/ de Sicília, 113, 115, 08013 Barcelona, Spain",3.4,1,0,0,0,0,0,0,0,0,1,487.0,"Carrer de Sicília, 113, 115, Barcelona",True,41.39618960000001,2.1803364,08013,El Fort Pienc,Eixample
Casa Camp,"Carrer del Camp, 56, 08022 Barcelona, Spain",2.0,0,1,0,0,0,0,0,0,0,0,1.0,"Carrer del Camp, 56, Barcelona",,41.403405,2.136353,08022,Sarria - La Bonanova,Les Corts
Xorús,"Rambla del Poblenou, 105, 08005 Barcelona, Spain",4.5,1,1,1,1,0,1,1,1,1,1,1482.0,"Rambla del Poblenou, 105, Barcelona",True,41.4028438,2.1987091,08005,Poblenou,Sant Marti
Kebab Ktz,"Carrer de Xavier Nogués, 49, 08019 Barcelona, Spain",4.0,1,1,0,0,0,1,1,0,0,1,45.0,"Carrer de Xavier Nogués, 49, Barcelona",True,41.41505960000001,2.215625,08019,El Besos - Sant Marti,Sant Marti
Marina Bay - Lounge Bar Restaurante - Paellas - Vila Olímpica,"Carrer de la Marina, 19-21, 08005 Barcelona, Spain",3.9,1,1,1,1,1,1,1,0,1,1,4163.0,"Carrer de la Marina, 19-21, Barcelona",True,41.38636449999999,2.1974839,08005,Poblenou,Sant Marti
Enoteca Paco Pérez,"Carrer de la Marina, 19, 21, 08005 Barcelona, Spain",4.4,0,1,1,1,0,1,1,0,1,0,187.0,"Carrer de la Marina, 19, 21, Barcelona",True,41.3870079,2.1966347,08005,Poblenou,Sant Marti
Marina Coastal Food,"Carrer de la Marina, 19-21, 08005 Barcelona, Spain",3.8,0,1,1,1,0,1,1,0,1,0,40.0,"Carrer de la Marina, 19-21, Barcelona",True,41.3870542,2.196560400000001,08005,Poblenou,Sant Marti
SHAJO Sushi & Poke (a domicilio),"C/ de Còrsega, 452, 08025 Barcelona, Spain",4.7,1,0,0,1,1,1,1,1,0,1,93.0,"Carrer de Còrsega, 452, Barcelona",True,41.4024912,2.167527999999999,08025,Camps d'en Grassot i Gracia Nova,Gracia
Ali Kebabish,"08014 Barcelona, Spain",4.0,0,1,0,0,0,1,1,0,0,1,228.0,Spain,True,41.3765749,2.1461179,08014,La Bordeta - Les Corts,Sants - Montjuic
Bon Profit Restaurante,"C/ d'Aragó, 353, 08009 Barcelona, Spain",1.0,0,1,1,1,0,0,1,0,1,1,1.0,"Carrer d'Aragó, 353, Barcelona",,41.3973088,2.1714487,08009,Dreta Eixample,Eixample
Restaurante El Nou Peñón,"Pg. Marítim de la Barceloneta, 17, 08003 Barcelona, Spain",,0,1,1,1,0,0,1,0,1,1,,"Passeig Marítim de la Barceloneta, 17, Barcelona",,41.382043,2.1938533,08003,Barceloneta,Ciutat Vella
Tast-ller,"C. de Viladomat, 137, 08015 Barcelona, Spain",4.6,0,1,1,0,0,1,1,0,1,0,189.0,"Carrer de Viladomat, 137, Barcelona",True,41.38102729999999,2.1551833,08015,Nova Esquerra Exiample - Sant Antoni,Eixample
Rest Eat,"C/ de Sancho de Ávila, 88, 08018 Barcelona, Spain",,1,1,0,0,0,0,1,0,0,0,,"Carrer de Sancho de Ávila, 88, Barcelona",,41.3999164,2.1918834,08018,El Clot,Sant Marti
Rey De Ali Baba,"C/ de Concepción Arenal, 191, 08027 Barcelona, Spain",4.5,1,1,1,0,0,1,1,0,0,1,63.0,"Carrer de Concepción Arenal, 191, Barcelona",True,41.42804679999999,2.184130499999999,08027,El Congres - Navas,Sant Andreu
Tapeo,"C/ de Montcada, 29, 08003 Barcelona, Spain",4.5,0,1,1,1,0,1,1,0,1,1,2986.0,"Carrer de Montcada, 29, Barcelona",,41.38454449999999,2.1818046,08003,Barceloneta,Ciutat Vella
La Porca,"C/ de Mata, 16, 08004 Barcelona, Spain",4.4,1,1,1,1,0,1,1,1,1,1,2126.0,"Carrer de Mata, 16, Barcelona",True,41.373009,2.170650999999999,08004,Poble Sec,Sants - Montjuic
Tempura & Thali,"Ctra. del Prat, 46, 08038 Barcelona, Spain",4.3,0,1,0,1,0,0,1,0,1,1,21.0,"Carretera del Prat, 46, Barcelona",True,41.3595341,2.1336963,08038,Montjuic,Sants - Montjuic
Tejano Mexican Grill,"Carrer de Marià Cubí, 92, 08021 Barcelona, Spain",2.9,1,1,0,1,0,0,0,0,1,1,22.0,"Carrer de Marià Cubí, 92, Barcelona",,41.3969858,2.1473942,08021,Les Corts - Sarria,Les Corts
Restaurant El Nou,"C. de Santa Fe de Nou Mèxic, 15, 08017 Barcelona, Spain",4.1,0,1,1,1,1,1,1,0,1,1,107.0,"Carrer de Santa Fe de Nou Mèxic, 15, Barcelona",True,41.3944509,2.1372271,08017,Vallvidrera,Sarria - Sant Gervasi
La Bodegueta de Sant Andreu,"Rambla de Fabra i Puig, 30, 08030 Barcelona, Spain",4.5,0,1,1,1,1,1,1,0,1,1,1599.0,"Rambla de Fabra i Puig, 30, Barcelona",True,41.4302751,2.187876199999999,08030,San Andres Palomar,Sant Andreu
Omar Café,"C/ d'Aribau, 77, 08036 Barcelona, Spain",4.0,0,1,0,0,0,0,0,0,0,0,4.0,"Carrer d'Aribau, 77, Barcelona",,41.38935159999999,2.1578942,08036,Esquerra Eixample,Eixample
La Tagliatella,"Av. Diagonal, 431, 08036 Barcelona, Spain",4.0,1,1,1,1,0,1,1,0,1,1,1695.0,"Avinguda Diagonal, 431, Barcelona",True,41.3943198,2.152208899999999,08036,Esquerra Eixample,Eixample
Bar De Tapas Zoe,"Carrer de Deià, 5, 08016 Barcelona, Spain",4.4,0,1,1,1,0,0,0,0,1,0,58.0,"Carrer de Deià, 5, Barcelona",True,41.4327387,2.1771599,08016,Porta-La Prosperitat,Nou Barris
mario Doner Kebab,"C/ de las Chafarinas, 11B, 08033 Barcelona, Spain",3.8,1,1,0,1,0,1,1,0,1,1,138.0,"Carrer de las Chafarinas, 11B, Barcelona",True,41.44748810000001,2.183468200000001,08033,Trinitat - Torre Baro,Nou Barris
LABALABUSTA,"C/ del Rosselló, 180, 08008 Barcelona, Spain",4.1,1,1,1,1,1,1,1,1,1,1,760.0,"Carrer del Rosselló, 180, Barcelona",,41.3922355,2.1561917,08008,Antiga Esquerra Eixample,Eixample
Kimo - Born,"C. de l'Argenteria, 6, 08003 Barcelona, Spain",5.0,0,1,0,0,0,0,0,0,0,0,2.0,"Carrer de l'Argenteria, 6, Barcelona",,41.3835711,2.1801655,08003,Barceloneta,Ciutat Vella
Seco Taverna Km0,"Passeig de Montjuïc, 74, 08004 Barcelona, Spain",4.8,0,1,1,1,0,1,1,0,1,1,6.0,"Passeig de Montjuïc, 74, Barcelona",True,41.3719548,2.167349600000001,08004,Poble Sec,Sants - Montjuic
Empanadish Take Away,"Carrer de Martí, 139, 08024 Barcelona, Spain",3.9,1,1,0,0,0,1,1,0,0,1,282.0,"Carrer de Martí, 139, Barcelona",True,41.4102649,2.1616918,08024,Gracia - Can Baro,Gracia
O' Peixe Bar Restaurant,"C/ d'Aragó, 199, 08011 Barcelona, Spain",3.5,0,1,1,1,0,0,1,0,1,1,16.0,"Carrer d'Aragó, 199, Barcelona",True,41.3880505,2.1591419,08011,Esquerra Eixample,Eixample
Bistrot LOCAL,"C/ de Casp, 92-94, bajos 2, 08013 Barcelona, Spain",4.1,0,1,1,1,1,1,1,0,1,1,464.0,"Carrer de Casp, 92-94, bajos 2, Barcelona",True,41.3935974,2.1766435,08013,El Fort Pienc,Eixample
Ariza Catering Barcelona,"Gran Via de les Corts Catalanes, 1075, 08020 Barcelona, Spain",2.5,0,0,0,0,0,0,0,0,0,0,2.0,"Gran Via de les Corts Catalanes, 1075, Barcelona",,41.4159696,2.2027902,08020,La Verneda - Sant Marti de Provençals,Sant Marti
Izakaya Ramen House Barcelona,"Rda. de Sant Pau, 7, 08015 Barcelona, Spain",4.2,1,1,1,1,0,1,1,0,1,1,490.0,"Ronda de Sant Pau, 7, Barcelona",True,41.3755377,2.166999,08015,Nova Esquerra Exiample - Sant Antoni,Eixample
LA TABERNA DEL ÁRBOL,"08029 Barcelona, Spain",,0,1,0,0,0,0,0,0,0,0,,Barcelona,,41.3912746,2.1407131,08029,Sarria,Sarria - Sant Gervasi
Alo Beirut restaurante libanés árabe - ألو بيروت مطعم لبناني,"C/ d'Aribau, 90, 08036 Barcelona, Spain",4.4,1,1,1,1,0,1,1,1,1,1,567.0,"Carrer d'Aribau, 90, Barcelona",False,41.389732,2.157741,08036,Esquerra Eixample,Eixample
sensEspina,"C/ de París, 209, 08008 Barcelona, Spain",4.4,0,1,1,1,0,1,1,1,1,1,266.0,"Carrer de París, 209, Barcelona",True,41.3945115,2.1542234,08008,Antiga Esquerra Eixample,Eixample
Suru Bar,"C/ de Casanova, 134, 08036 Barcelona, Spain",4.8,0,1,1,1,0,1,1,1,1,0,121.0,"Carrer de Casanova, 134, Barcelona",True,41.3885826,2.1549048,08036,Esquerra Eixample,Eixample
Sabor catracho,"Carrer de Canyameres, 20, 08016 Barcelona, Spain",3.6,1,1,1,1,0,1,1,0,1,1,77.0,"Carrer de Canyameres, 20, Barcelona",True,41.4426664,2.1790968,08016,Porta-La Prosperitat,Nou Barris
Restaurant El Cairo,"Carrer de Sant Cristòfol, 2, 08012 Barcelona, Spain",5.0,0,1,0,0,0,0,0,0,0,0,1.0,"Carrer de Sant Cristòfol, 2, Barcelona",,41.3995867,2.1544632,08012,Vila de Gracia,Gracia
Smailing,"Carrer de Salvà, 16, 08004 Barcelona, Spain",,0,1,0,0,0,0,0,0,0,0,,"Carrer de Salvà, 16, Barcelona",,41.3741878,2.1663696,08004,Poble Sec,Sants - Montjuic
Restaurante Silván,"C/ de Roger de Llúria, 100, 08037 Barcelona, Spain",4.2,0,1,1,1,1,1,1,0,1,1,329.0,"Carrer de Roger de Llúria, 100, Barcelona",True,41.3957938,2.1655725,08037,Dreta Eixample,Eixample
Tio Joe,"Via Augusta, 9, 08006 Barcelona, Spain",4.5,1,1,1,1,0,1,1,0,1,1,2053.0,"Via Augusta, 9, Barcelona",True,41.3963678,2.1549552,08006,El Farro,Sarria - Sant Gervasi
Cocacola vilaplana,"C/ de Cristóbal de Moura, 126, 08019 Barcelona, Spain",1.0,0,1,0,0,0,0,0,0,0,0,1.0,"Carrer de Cristóbal de Moura, 126, Barcelona",,41.41213959999999,2.2080256,08019,El Besos - Sant Marti,Sant Marti
Taco Alto,"Rambla del Raval, 2, 08001 Barcelona, Spain",4.0,1,1,0,1,0,1,1,0,0,1,1428.0,"Rambla del Raval, 2, Barcelona",True,41.3794301,2.1679792,08001,El Raval,Ciutat Vella
Jaipur Palace,"Carrer de Mèxic, 17, 08004 Barcelona, Spain",4.0,0,1,1,1,0,1,1,0,1,1,6.0,"Carrer de Mèxic, 17, Barcelona",True,41.3729081,2.1484896,08004,Poble Sec,Sants - Montjuic
Modoki Funky Roll,"Passatge de Batlló, 16, 08036 Barcelona, Spain",5.0,0,1,1,1,0,1,1,1,1,1,147.0,"Passatge de Batlló, 16, Barcelona",True,41.3879356,2.151835,08036,Esquerra Eixample,Eixample
SUPER PIZZA DÖNER,"Pl. de Jaume Huguet, 5X, 08019 Barcelona, Spain",,0,1,0,0,0,0,0,0,0,1,,"Plaça de Jaume Huguet, 5X, Barcelona",True,41.4175314,2.2119667,08019,El Besos - Sant Marti,Sant Marti
Pizzeria Sparta,"C/ d'Escòcia, 71, 08016 Barcelona, Spain",4.4,1,1,0,0,0,0,0,0,0,1,501.0,"Carrer d'Escòcia, 71, Barcelona",True,41.4285378,2.1801128,08016,Porta-La Prosperitat,Nou Barris
Sushi Ouchi,"Rda. de Sant Pau, 9, 08015 Barcelona, Spain",4.4,1,1,1,1,0,1,1,0,1,1,204.0,"Ronda de Sant Pau, 9, Barcelona",True,41.37559880000001,2.1669286,08015,Nova Esquerra Exiample - Sant Antoni,Eixample
La Caravana,"Carrer de Mozart, 15, 08012 Barcelona, Spain",4.7,1,1,0,1,1,1,1,1,1,1,2660.0,"Carrer de Mozart, 15, Barcelona",,41.399322,2.158242500000001,08012,Vila de Gracia,Gracia
BAR RINCÓN,"C. de Vilamarí, 10, 08015 Barcelona, Spain",4.1,0,1,0,1,0,1,1,0,1,1,72.0,"Carrer de Vilamarí, 10, Barcelona",True,41.37592799999999,2.1534558,08015,Nova Esquerra Exiample - Sant Antoni,Eixample
Ruta 6 Brewery | Cerveza artesanal,"C/ de París, 176, 178, 08036 Barcelona, Spain",4.4,1,1,0,1,0,0,0,0,1,1,595.0,"Carrer de París, 176, 178, Barcelona",True,41.392928,2.1526408,08036,Esquerra Eixample,Eixample
Ribera Coffee,"Carrer de la Marina, 275, 08025 Barcelona, Spain",4.3,1,1,0,1,1,1,1,1,0,1,162.0,"Carrer de la Marina, 275, Barcelona",True,41.4054813,2.1729338,08025,Camps d'en Grassot i Gracia Nova,Gracia
El Refugi del Port,"C. del Judici, 4, 08003 Barcelona, Spain",4.4,0,1,1,1,0,1,1,0,1,0,371.0,"Carrer del Judici, 4, Barcelona",,41.3764534,2.1893665,08003,Barceloneta,Ciutat Vella
Auto Rosselló,"C/ del Rosselló, 182, 08008 Barcelona, Spain",3.6,1,1,1,1,1,1,1,1,1,1,1509.0,"Carrer del Rosselló, 182, Barcelona",True,41.3924215,2.1565281,08008,Antiga Esquerra Eixample,Eixample
19 Bagels,"C/ del Comte Borrell, 77, local 2, 08015 Barcelona, Spain",4.8,1,1,0,1,0,0,0,1,0,1,286.0,"Carrer del Comte Borrell, 77, local 2, Barcelona",True,41.3783256,2.1611667,08015,Nova Esquerra Exiample - Sant Antoni,Eixample
El Sabroso,"Carrer de Felipe de Paz, 13, 08028 Barcelona, Spain",3.6,0,1,0,1,0,1,1,0,1,1,75.0,"Carrer de Felipe de Paz, 13, Barcelona",,41.37911280000001,2.1257085,08028,Les Corts,Les Corts
Duke Sol restaurant,"C. de Santander, 82, 08020 Barcelona, Spain",3.8,0,1,0,0,0,0,0,0,0,0,5.0,"Carrer de Santander, 82, Barcelona",,41.4311899,2.2053624,08020,La Verneda - Sant Marti de Provençals,Sant Marti
Kibuka Goya,"C/ de Goya, 9, 08012 Barcelona, Spain",4.4,1,1,1,1,0,1,1,1,1,1,3234.0,"Carrer de Goya, 9, Barcelona",,41.39971,2.157236,08012,Vila de Gracia,Gracia
Delizie Balmes,"C/ de Balmes, 149, 08008 Barcelona, Spain",4.6,0,1,0,0,0,1,1,0,1,1,33.0,"Carrer de Balmes, 149, Barcelona",True,41.3942469,2.1558946,08008,Antiga Esquerra Eixample,Eixample
Sabor de Barrio,"Carrer dels Assaonadors, 25, 08003 Barcelona, Spain",4.6,0,1,1,0,0,0,0,0,0,0,580.0,"Carrer dels Assaonadors, 25, Barcelona",,41.3862401,2.1810899,08003,Barceloneta,Ciutat Vella
Alella,"C/ d'Emili Roca, 72, 08016 Barcelona, Spain",,0,1,0,1,0,0,0,0,1,0,,"Carrer d'Emili Roca, 72, Barcelona",True,41.431521,2.1782214,08016,Porta-La Prosperitat,Nou Barris
Qué pasta! by Mandoni,"C.C. Diagonal Mar, Avinguda Diagonal, 3, Av. Diagonal, 08019 Barcelona, Spain",2.8,0,1,0,1,0,1,1,0,0,1,200.0,"C.C. Diagonal Mar, Avinguda Diagonal, 3, Avenida Diagonal, Barcelona",True,41.4097706,2.2164377,08019,El Besos - Sant Marti,Sant Marti
Restaurant La Tagliatella | Diagonal Mar,"Av. Diagonal, 3, 08019 Barcelona, Spain",4.0,1,1,1,1,0,1,1,0,1,1,4504.0,"Avinguda Diagonal, 3, Barcelona",True,41.4086817,2.2164796,08019,El Besos - Sant Marti,Sant Marti
M restaurant tapes,"La Rambla, 45, 08002 Barcelona, Spain",1.9,0,1,1,1,0,1,1,0,1,1,348.0,"La Rambla, 45, Barcelona",True,41.3797848,2.174188,08002,Barri Gotic,Ciutat Vella
Central Açaí Barcelona,"C/ de l'Atlàntida, 78, 08003 Barcelona, Spain",4.5,1,1,0,0,0,0,1,1,0,1,107.0,"Carrer de l'Atlàntida, 78, Barcelona",True,41.3771923,2.1907631,08003,Barceloneta,Ciutat Vella
Vivant,"C/ del Consell de Cent, 394, 08009 Barcelona, Spain",4.5,0,1,1,1,1,1,1,1,1,1,1242.0,"Carrer del Consell de Cent, 394, Barcelona",True,41.3959906,2.1727632,08009,Dreta Eixample,Eixample
Muysca Barcelona,"C/ del Clot, 135, 08026 Barcelona, Spain",4.8,1,1,1,1,1,1,1,0,1,1,291.0,"Carrer del Clot, 135, Barcelona",,41.4112064,2.1893783,08026,Camp de l'arpa,Sant Marti
Cal Trunfo,"08518 La Torra d, 08002 Barcelona, Spain",,0,1,0,0,0,0,0,0,0,0,,08518 La Torra d,,41.3850734,2.1733956,08002,Barri Gotic,Ciutat Vella
PETITA LLUM Café&Bar,"Av. del Bogatell, 65, local, 08005 Barcelona, Spain",4.3,0,1,0,1,1,1,1,1,1,1,64.0,"Avinguda del Bogatell, 65, local, Barcelona",True,41.3926569,2.1913162,08005,Poblenou,Sant Marti
Döner Kebab Pizzeria Y Cafeteria,"Carrer del Comte d'Urgell, 258, 08036 Barcelona, Spain",4.0,0,1,0,0,0,0,0,0,0,0,2.0,"Carrer del Comte d'Urgell, 258, Barcelona",,41.3906047,2.1475909,08036,Esquerra Eixample,Eixample
Toma Ya Street Food,"C/ de Nil Fabra, 34, 36, 08012 Barcelona, Spain",4.7,0,1,1,1,0,1,1,0,0,0,617.0,"Carrer de Nil Fabra, 34, 36, Barcelona",False,41.406313,2.152386,08012,Vila de Gracia,Gracia
Catering en Barcelona - VILAFLORIDA,"Carrer de Duran i Borrell, 2, 08023 Barcelona, Spain",4.6,1,0,0,0,0,0,0,0,0,1,28.0,"Carrer de Duran i Borrell, 2, Barcelona",,41.4177932,2.149304700000001,08023,El Coll,Gracia
Rostisseria La Cuineta,"Carrer de Duran i Borrell, 2, 08023 Barcelona, Spain",4.4,1,0,1,0,1,0,1,0,0,1,127.0,"Carrer de Duran i Borrell, 2, Barcelona",True,41.4177923,2.1493071,08023,El Coll,Gracia
Abrelatas Cafe & Bar,"Avinguda Francesc Ferrer i Guàrdia, Dentro Poble, Plaza Mayor, 13, 08038 Barcelona, Spain",4.1,0,1,1,1,0,0,0,0,1,1,374.0,"Dentro Poble, Avinguda Francesc Ferrer i Guàrdia, Plaza Mayor, 13, Barcelona",True,41.3688576,2.146838,08038,Montjuic,Sants - Montjuic
The Fish & Chips Shop,"C/ de Rocafort, 70, 08029 Barcelona, Spain",4.5,1,1,0,1,0,1,1,0,1,1,1694.0,"Carrer de Rocafort, 70, Barcelona",,41.3785314,2.154526,08029,Sarria,Sarria - Sant Gervasi
Ali Restaurant,"Carrer d'Espalter, 4, 08001 Barcelona, Spain",4.3,1,1,0,0,1,1,1,1,0,1,203.0,"Carrer d'Espalter, 4, Barcelona",,41.3785232,2.1706224,08001,El Raval,Ciutat Vella
张亮麻辣烫 Zhang Liang Hot Pot BCN,"Gran Via de les Corts Catalanes, 734, 08013 Barcelona, Spain",4.2,1,1,1,1,0,1,1,0,1,1,51.0,"Gran Via de les Corts Catalanes, 734, Barcelona",,41.3969386,2.1787416,08013,El Fort Pienc,Eixample
El Rusc,"Carrer de Rabassa, 39, 08024 Barcelona, Spain",4.7,0,1,1,1,0,1,1,1,1,1,223.0,"Carrer de Rabassa, 39, Barcelona",,41.408171,2.157429,08024,Gracia - Can Baro,Gracia
El cochinillo loco,"C/ d'Aragó, 277, 08007 Barcelona, Spain",3.4,0,1,1,1,0,1,1,0,1,1,7.0,"Carrer d'Aragó, 277, Barcelona",,41.3931085,2.1658724,08007,Antiga Esquerra Eixample,Eixample
La Taberna Grega,"Carrer del Torrent de l'Olla, 123, 08012 Barcelona, Spain",4.1,1,1,1,1,0,1,1,1,1,1,1013.0,"Carrer del Torrent de l'Olla, 123, Barcelona",,41.4028159,2.1563634,08012,Vila de Gracia,Gracia
InFusionFood,"C/ del Rosselló, 22, 08029 Barcelona, Spain",4.6,1,1,1,1,0,1,1,0,1,1,278.0,"Carrer del Rosselló, 22, Barcelona",True,41.3844389,2.145769800000001,08029,Sarria,Sarria - Sant Gervasi
Cepsa,"C/ del Clot, 181, 08027 Barcelona, Spain",4.0,0,0,0,0,0,0,0,0,0,0,425.0,"Carrer del Clot, 181, Barcelona",True,41.414611,2.190528,08027,El Congres - Navas,Sant Andreu
Bocca di Bonifacio - Sardenya,"C/ de Sardenya, 360, 08025 Barcelona, Spain",4.3,1,1,1,1,1,1,1,0,1,1,1626.0,"Carrer de Sardenya, 360, Barcelona",False,41.4055546,2.1709037,08025,Camps d'en Grassot i Gracia Nova,Gracia
Little America,"C/ de St. Antoni Maria Claret, 115, 08025 Barcelona, Spain",3.6,0,1,0,1,0,0,1,0,0,1,17.0,"Carrer de Sant Antoni Maria Claret, 115, Barcelona",True,41.40909029999999,2.1712249,08025,Camps d'en Grassot i Gracia Nova,Gracia
Papanato - Bar de Patatas,"Pg. de Joan de Borbó, 65, 08003 Barcelona, Spain",4.3,1,1,1,1,0,0,0,0,1,1,1931.0,"Passeig de Joan de Borbó, 65, Barcelona",True,41.37621559999999,2.1891271,08003,Barceloneta,Ciutat Vella
Monchito,"C/ d'en Gignàs, 13, 08002 Barcelona, Spain",4.7,1,1,1,1,0,1,1,1,0,1,443.0,"Carrer d'en Gignàs, 13, Barcelona",,41.38102420000001,2.1799233,08002,Barri Gotic,Ciutat Vella
PIANO B Food Experience,"C/ de Magalhães, 35, 08004 Barcelona, Spain",5.0,0,1,1,1,0,1,1,1,1,1,3.0,"Carrer de Magalhães, 35, Barcelona",True,41.3721276,2.1632375,08004,Poble Sec,Sants - Montjuic
Il Mercante di Venezia,"Carrer de Josep Anselm Clavé, 11, 08002 Barcelona, Spain",4.4,1,1,1,1,0,1,1,0,1,1,1764.0,"Carrer de Josep Anselm Clavé, 11, Barcelona",True,41.37737389999999,2.1779032,08002,Barri Gotic,Ciutat Vella
Manolo,"Carrer del Roser, 80, 08004 Barcelona, Spain",4.4,0,1,1,1,1,0,1,0,1,1,82.0,"Carrer del Roser, 80, Barcelona",True,41.3717539,2.165548499999999,08004,Poble Sec,Sants - Montjuic
Ve De Gust,"C. de Pere IV, 08005 Barcelona, Spain",4.0,0,1,1,1,0,1,1,0,1,1,79.0,"Carrer de Pere IV, Barcelona",True,41.3931088,2.1899307,08005,Poblenou,Sant Marti
ARUKU Sin Gluten Sushi Gluten Free,"C/ de Provença, 327, 08037 Barcelona, Spain",4.8,1,1,1,1,0,1,1,1,1,1,264.0,"Carrer de Provença, 327, Barcelona",True,41.3995166,2.1674951,08037,Dreta Eixample,Eixample
Granja Paris,"C/ de París, 93, 08029 Barcelona, Spain",3.8,0,1,0,1,0,0,1,0,1,1,18.0,"Carrer de París, 93, Barcelona",,41.38891279999999,2.1467991,08029,Sarria,Sarria - Sant Gervasi
Carles Abellan,"08006 Barcelona, Spain",3.3,0,1,1,1,0,1,1,0,1,1,68.0,Barcelona,True,41.3951125,2.1528113,08006,El Farro,Sarria - Sant Gervasi
Asador de Aranda,"C/ de Pau Claris, 70, 08010 Barcelona, Spain",4.3,0,1,1,1,0,1,1,0,1,1,2255.0,"Carrer de Pau Claris, 70, Barcelona",True,41.3892514,2.1720313,08010,Dreta Eixample,Eixample
Cerveseria Catalana,"C/ de Mallorca, 236, 08008 Barcelona, Spain",4.4,0,1,1,1,1,1,1,0,1,1,17357.0,"Carrer de Mallorca, 236, Barcelona",True,41.39232510000001,2.1608515,08008,Antiga Esquerra Eixample,Eixample
La Bomba Del Sabor,"C/ de Guifré, 574, 08918 Barcelona, Spain",,0,1,0,0,0,0,0,0,0,0,,"Carrer de Guifré, 574, Barcelona",,41.43815960000001,2.2346946,08918,,
Bar Esterri,"C. de Villarroel, 19, 08011 Barcelona, Spain",3.9,0,1,0,1,1,1,1,0,1,1,553.0,"Carrer de Villarroel, 19, Barcelona",,41.3812143,2.1618095,08011,Esquerra Eixample,Eixample
Pizzeria Romana,"C/ de Roger, 10, 08028 Barcelona, Spain",5.0,1,1,0,1,0,1,1,0,0,1,7.0,"Carrer de Roger, 10, Barcelona",True,41.3763757,2.125874,08028,Les Corts,Les Corts
Can Buïgas,"Plaça d'Eguilaz, n9, 08017 Barcelona, Spain",4.2,1,1,1,1,1,1,1,0,1,1,182.0,"Plaça d'Eguilaz, n9, Barcelona",,41.39386080000001,2.13216,08017,Vallvidrera,Sarria - Sant Gervasi
Ibérico & Thai,"C/ d'Entença, 140, 08015 Barcelona, Spain",4.1,1,1,1,1,1,1,1,0,1,1,212.0,"Carrer d'Entença, 140, Barcelona",True,41.3819831,2.1476797,08015,Nova Esquerra Exiample - Sant Antoni,Eixample
Bar restaurante sol,"Carrer de la Creu Coberta, 80, 08014 Barcelona, Spain",4.3,0,1,0,1,1,1,1,0,1,1,84.0,"Carrer de la Creu Coberta, 80, Barcelona",True,41.3753387,2.1441055,08014,La Bordeta - Les Corts,Sants - Montjuic
Several cafè,"C/ Gran de Sant Andreu, 165, 08030 Barcelona, Spain",4.6,0,1,0,0,1,0,1,1,0,1,1859.0,"Carrer Gran de Sant Andreu, 165, Barcelona",True,41.432571,2.1891737,08030,San Andres Palomar,Sant Andreu
Tapa Tapa Maremàgnum,"C.C. Maremagnum, Moll d' Espanya, 5, 08039 Barcelona, Spain",4.0,1,1,1,1,1,1,1,0,1,1,6346.0,"C.C. Maremagnum, Moll d' Espanya, 5, Barcelona",True,41.374584,2.183038,08039,Port de Barcelona,Sants - Montjuic
Marisquería,"Carrer de la Muntanya, 94, 08026 Barcelona, Spain",,0,1,0,1,0,0,1,0,1,1,,"Carrer de la Muntanya, 94, Barcelona",True,41.4126895,2.1834015,08026,Camp de l'arpa,Sant Marti
La Klaka,"Carrer de Coll, 15, 08027 Barcelona, Spain",4.3,0,1,1,1,0,1,1,1,1,1,633.0,"Carrer de Coll, 15, Barcelona",True,41.4245641,2.1901464,08027,El Congres - Navas,Sant Andreu
Taberna Andaluza Dunia,"Carrer de Baltasar Gracián, 2, 08016 Barcelona, Spain",4.4,0,1,1,1,0,0,0,0,1,1,725.0,"Carrer de Baltasar Gracián, 2, Barcelona",False,41.4401187,2.182134399999999,08016,Porta-La Prosperitat,Nou Barris
Tope,"Av. Diagonal, 205, 08018 Barcelona, Spain",3.9,0,1,1,1,0,1,1,1,1,1,240.0,"Avinguda Diagonal, 205, Barcelona",True,41.4036816,2.1902974,08018,El Clot,Sant Marti
The Ranch Smokehouse,"Ronda de la Univ., 20, 08007 Barcelona, Spain",4.4,1,1,1,1,1,1,1,0,1,1,2882.0,"Ronda de la Universitat, 20, Barcelona",True,41.38681589999999,2.1676503,08007,Antiga Esquerra Eixample,Eixample
El Món de la Tapa,"C. de Riego, 36, 08014 Barcelona, Spain",3.9,0,1,0,1,0,0,1,0,1,1,43.0,"Carrer de Riego, 36, Barcelona",True,41.3771767,2.1384662,08014,La Bordeta - Les Corts,Sants - Montjuic
Res,"Sysoon Spain, Pg. de Gràcia, 38, 08007 Barcelona, Spain",,0,1,0,0,0,0,0,0,0,0,,"Sysoon Spain, Passeig de Gràcia, 38, Barcelona",,41.3913449,2.1667839,08007,Antiga Esquerra Eixample,Eixample
MacxiPa,"C/ de l'Atlàntida, 27-29, 08003 Barcelona, Spain",3.0,0,0,0,0,0,0,0,0,0,1,9.0,"Carrer de l'Atlàntida, 27-29, Barcelona",True,41.38061819999999,2.1895318,08003,Barceloneta,Ciutat Vella
Andreu Juan Plana,"Carrer del Bou de Sant Pere, 9, 08003 Barcelona, Spain",5.0,0,1,0,0,0,0,0,0,0,0,1.0,"Carrer del Bou de Sant Pere, 9, Barcelona",,41.3879375,2.1767068,08003,Barceloneta,Ciutat Vella
Cal Cisteller,"C/ de Bilbao, 17, 08005 Barcelona, Spain",4.3,0,1,1,1,1,0,1,0,1,1,109.0,"Carrer de Bilbao, 17, Barcelona",True,41.4008878,2.2059301,08005,Poblenou,Sant Marti
GO! Sushing Les Corts,"Travessera de les Corts, 96, 98, 08028 Barcelona, Spain",4.1,1,1,1,1,0,1,1,1,1,1,184.0,"Travessera de les Corts, 96, 98, Barcelona",True,41.3795677,2.1241844,08028,Les Corts,Les Corts
Mucha Lucha,"Rambla de Sant Jordi, 116, 08291 Barcelona, Spain",4.4,0,1,1,1,0,1,1,0,1,1,81.0,"Rambla de Sant Jordi, 116, Barcelona",True,41.4948875,2.1655358,08291,,
Bar Restaurant Diamàntic,"Carrer de Tànger, 54, 08018 Barcelona, Spain",3.8,0,1,1,1,1,1,1,0,1,1,734.0,"Carrer de Tànger, 54, Barcelona",True,41.4005135,2.1904066,08018,El Clot,Sant Marti
Mucho,"Carrer de Marià Cubí, 201, 08021 Barcelona, Spain",4.6,1,1,1,1,0,1,1,0,1,1,367.0,"Carrer de Marià Cubí, 201, Barcelona",True,41.3948389,2.1439927,08021,Les Corts - Sarria,Les Corts
Tumatey,"Av. Diagonal, 357, Local 1, 08037 Barcelona, Spain",4.9,1,1,1,1,1,1,1,1,1,1,975.0,"Avinguda Diagonal, 357, Local 1, Barcelona",False,41.3974608,2.1644035,08037,Dreta Eixample,Eixample
Bar-Restaurant Sport,"C/ de la Llacuna, 47, 08005 Barcelona, Spain",4.7,0,1,1,1,1,1,1,0,1,1,102.0,"Carrer de la Llacuna, 47, Barcelona",True,41.40007240000001,2.1999453,08005,Poblenou,Sant Marti
Pappa & Citti,"Carrer de Moliné, 11, 08006 Barcelona, Spain",4.7,0,1,1,1,0,1,0,1,1,1,683.0,"Carrer de Moliné, 11, Barcelona",False,41.39840399999999,2.1478204,08006,El Farro,Sarria - Sant Gervasi
MILES Cocktail Bar,"C/ de la Diputació, 215, LOCAL 0000, 08011 Barcelona, Spain",4.6,0,1,1,1,0,1,0,0,1,1,137.0,"Carrer de la Diputació, 215, LOCAL 0000, Barcelona",True,41.3868883,2.1622022,08011,Esquerra Eixample,Eixample
Bar Restaurante Duende,"C/ de Roger de Llúria, 49, 08009 Barcelona, Spain",3.0,0,1,0,0,0,0,0,0,0,0,1.0,"Carrer de Roger de Llúria, 49, Barcelona",,41.3929992,2.1688501,08009,Dreta Eixample,Eixample
Albedo Food S.L.,"C/ d'Aragó, 159, 08011 Barcelona, Spain",,0,1,1,1,0,0,1,0,1,1,,"Carrer d'Aragó, 159, Barcelona",True,41.3853375,2.1555539,08011,Esquerra Eixample,Eixample
El Jardí de l'Abadessa,"C/ de l'Abadessa Olzet, 26, 08034 Barcelona, Spain",4.1,0,1,1,1,1,1,1,0,1,1,1948.0,"Carrer de l'Abadessa Olzet, 26, Barcelona",True,41.3942596,2.1100122,08034,Pedralbes,Les Corts
Restaurant El Clandestí Club,"Carrer de Jaume Piquet, 1, 08017 Barcelona, Spain",4.0,0,1,1,1,1,1,1,0,1,1,231.0,"Carrer de Jaume Piquet, 1, Barcelona",True,41.3976781,2.1234359,08017,Vallvidrera,Sarria - Sant Gervasi
Restaurante Julieta's,"Passeig del Mare Nostrum, 19, 08039 Barcelona, Spain",4.0,0,1,1,1,0,1,1,0,1,0,864.0,"Passeig del Mare Nostrum, 19, Barcelona",True,41.3690632,2.1904597,08039,Port de Barcelona,Sants - Montjuic
Debby's Good Veggie Food,"C/ de Sant Joan de Malta, 48, Local 5, 08018 Barcelona, Spain",4.7,1,1,0,0,0,0,0,0,0,1,199.0,"Carrer de Sant Joan de Malta, 48, Local 5, Barcelona",True,41.407542,2.193707,08018,El Clot,Sant Marti
Restaurant Askadinya,"C/ de Verdi, 28, 08012 Barcelona, Spain",4.2,1,1,1,1,0,1,1,1,1,1,802.0,"Carrer de Verdi, 28, Barcelona",True,41.4038556,2.1569556,08012,Vila de Gracia,Gracia
Restaurant ALÍ BABÀ,"Carrer d'En Robador, 6, 08001 Barcelona, Spain",,0,1,1,1,0,0,0,0,1,1,,"Carrer d'En Robador, 6, Barcelona",,41.3799649,2.1702848,08001,El Raval,Ciutat Vella
beatnik,"C/ de Girona, 68, 08009 Barcelona, Spain",,0,1,0,0,0,0,0,0,0,0,,"Carrer de Girona, 68, Barcelona",,41.3948605,2.1712607,08009,Dreta Eixample,Eixample
El Villa - Vermuteria del mar,"C/ de Martínez de la Rosa, 27, 08012 Barcelona, Spain",4.6,0,1,1,1,0,1,1,0,1,0,533.0,"Carrer de Martínez de la Rosa, 27, Barcelona",True,41.3996257,2.1592609,08012,Vila de Gracia,Gracia
Rincón Persa,"C. de Floridablanca, 85, 08015 Barcelona, Spain",4.7,1,1,1,1,0,1,1,1,1,1,2793.0,"Carrer de Floridablanca, 85, Barcelona",,41.379249,2.15925,08015,Nova Esquerra Exiample - Sant Antoni,Eixample
La Lonja marisquería,"Av. de Josep Tarradellas, 60, 08029 Barcelona, Spain",4.2,0,1,1,1,0,1,1,0,1,1,173.0,"Avinguda de Josep Tarradellas, 60, Barcelona",,41.38520649999999,2.1429676,08029,Sarria,Sarria - Sant Gervasi
La Riereta Restaurant,"Carrer de la Riereta, 26, 08001 Barcelona, Spain",3.0,0,1,1,1,0,1,1,0,1,1,2.0,"Carrer de la Riereta, 26, Barcelona",,41.37755929999999,2.1689905,08001,El Raval,Ciutat Vella
Mr.dawalter Obrador,"Carrer del Torrent de l'Olla, 115, 08012 Barcelona, Spain",5.0,1,0,0,0,0,1,1,0,0,1,6.0,"Carrer del Torrent de l'Olla, 115, Barcelona",True,41.40247660000001,2.1565934,08012,Vila de Gracia,Gracia
SU TALLERI - ITALIAN FOOD BAR,"C. de la Indústria, 191, 08025 Barcelona, Spain",5.0,0,1,0,1,0,1,1,0,1,1,7.0,"Carrer de la Indústria, 191, Barcelona",,41.4110672,2.1760541,08025,Camps d'en Grassot i Gracia Nova,Gracia
Cucina Italiana Restaurante - Bar H,"C/ de Sardenya, 90, 08018 Barcelona, Spain",4.8,0,1,1,1,0,1,1,0,1,1,493.0,"Carrer de Sardenya, 90, Barcelona",,41.392591,2.1877904,08018,El Clot,Sant Marti
Darling,"C/ de Blesa, 34, 08004 Barcelona, Spain",4.6,0,1,1,1,1,0,1,0,1,1,230.0,"Carrer de Blesa, 34, Barcelona",,41.3727556,2.1673194,08004,Poble Sec,Sants - Montjuic
TERREAZUR - GROUPE POMONA,"C/ de Manila, 54, 08034 Barcelona, Spain",5.0,0,0,0,0,0,0,0,0,0,0,1.0,"Carrer de Manila, 54, Barcelona",,41.39001549999999,2.1269825,08034,Pedralbes,Les Corts
Restaurant Xinès,"Av. Diagonal, 145, 08018 Barcelona, Spain",4.4,1,1,1,1,0,1,1,0,1,1,919.0,"Avinguda Diagonal, 145, Barcelona",True,41.4058526,2.1981886,08018,El Clot,Sant Marti
Gallery Hotel,"C/ del Rosselló, 249, 08008 Barcelona, Spain",4.4,0,1,1,1,0,0,0,0,1,1,1897.0,"Carrer del Rosselló, 249, Barcelona",True,41.3951333,2.1591838,08008,Antiga Esquerra Eixample,Eixample
Restaurant l'Ombú,"C/ de Sardenya, 445, 08025 Barcelona, Spain",4.1,0,1,1,1,0,1,1,0,1,1,621.0,"Carrer de Sardenya, 445, Barcelona",True,41.408598,2.1662908,08025,Camps d'en Grassot i Gracia Nova,Gracia
Ramen-ya SENBA ZURU,"C/ de Lepant, 335, 08025 Barcelona, Spain",4.4,1,1,1,1,0,1,1,1,1,1,726.0,"Carrer de Lepant, 335, Barcelona",True,41.4075527,2.1723041,08025,Camps d'en Grassot i Gracia Nova,Gracia
Birrieria Dos coyotes - Les Corts,"Carrer del Taquígraf Serra, 26, 08029 Barcelona, Spain",,1,1,0,0,0,0,0,0,0,1,,"Carrer del Taquígraf Serra, 26, Barcelona",True,41.3865569,2.1407661,08029,Sarria,Sarria - Sant Gervasi
UDON Travessera,"Travessera de Gràcia, 30, 08021 Barcelona, Spain",3.9,1,1,1,1,0,1,1,1,1,1,679.0,"Travessera de Gràcia, 30, Barcelona",True,41.39459,2.147407,08021,Les Corts - Sarria,Les Corts
Pollos Rikos Badal,"Carrer de Sugranyes, 6, 08028 Barcelona, Spain",3.8,1,1,1,1,1,1,1,0,1,1,572.0,"Carrer de Sugranyes, 6, Barcelona",True,41.37507129999999,2.127418,08028,Les Corts,Les Corts
Restaurante KAT(Chittomittho),"Avinguda Meridiana, 482, 08030 Barcelona, Spain",4.7,0,1,1,1,1,1,1,1,1,1,316.0,"Avinguda Meridiana, 482, Barcelona",,41.4357969,2.184603,08030,San Andres Palomar,Sant Andreu
Thai Noodles,"C/ de València, 230, 08007 Barcelona, Spain",4.8,0,1,1,1,0,1,1,1,0,1,109.0,"Carrer de València, 230, Barcelona",True,41.3900712,2.1601349,08007,Antiga Esquerra Eixample,Eixample
"Jalisco , no te rajes","C/ de Múrcia, 48, 08027 Barcelona, Spain",4.3,0,1,1,1,0,1,1,0,1,1,328.0,"Carrer de Múrcia, 48, Barcelona",True,41.4160072,2.1900571,08027,El Congres - Navas,Sant Andreu
Tio Bigotes Eixample,"C/ de Roger de Llúria, 53, 08009 Barcelona, Spain",4.9,1,1,0,1,0,1,1,1,1,1,214.0,"Carrer de Roger de Llúria, 53, Barcelona",True,41.3934845,2.1681851,08009,Dreta Eixample,Eixample
Taller de Tapas,"Rambla de Catalunya, 49, 51, 08007 Barcelona, Spain",4.0,1,1,1,1,1,1,1,0,1,1,4815.0,"Rambla de Catalunya, 49, 51, Barcelona",True,41.39052019999999,2.1639765,08007,Antiga Esquerra Eixample,Eixample
Restaurante La Familia,"C/ de Padilla, 223, 08013 Barcelona, Spain",,0,0,0,0,0,0,0,0,0,0,,"Carrer de Padilla, 223, Barcelona",,41.4040273,2.1792372,08013,El Fort Pienc,Eixample
COLORS,"C/ de Bilbao, 30, 32, 08005 Barcelona, Spain",4.1,0,1,1,0,0,0,0,0,0,0,87.0,"Carrer de Bilbao, 30, 32, Barcelona",,41.4023845,2.2048351,08005,Poblenou,Sant Marti
Taktika Berri,"C/ de València, 169, 08011 Barcelona, Spain",4.5,0,1,1,1,0,1,1,0,1,1,2445.0,"Carrer de València, 169, Barcelona",True,41.3885231,2.1575611,08011,Esquerra Eixample,Eixample
Sant Gervasi,"C/ de Sant Gervasi de Cassoles, 56, 08022 Barcelona, Spain",4.5,0,1,1,1,1,1,1,0,1,1,113.0,"Carrer de Sant Gervasi de Cassoles, 56, Barcelona",True,41.40531349999999,2.1375303,08022,Sarria - La Bonanova,Les Corts
Diagonal Fu,"C. de Pallars, 375, 08019 Barcelona, Spain",3.6,0,1,1,1,1,1,1,0,1,1,210.0,"Carrer de Pallars, 375, Barcelona",True,41.40902030000001,2.207867100000001,08019,El Besos - Sant Marti,Sant Marti
Restaurante de Tots,"Ronda del Guinardó, 241, 08041 Barcelona, Spain",3.6,0,1,0,1,0,0,1,0,1,1,7.0,"Ronda del Guinardó, 241, Barcelona",,41.4228044,2.177095500000001,08041,El Guinardo,Horta - Guinardo
La Cantonada,"C. de Ribes, 41, 08013 Barcelona, Spain",4.0,0,1,1,1,1,1,1,0,1,1,542.0,"Carrer de Ribes, 41, Barcelona",True,41.39595389999999,2.1820291,08013,El Fort Pienc,Eixample
AKR Gastronomia,"Av. Diagonal, 107, 08005 Barcelona, Spain",,0,1,0,1,0,1,1,0,1,1,,"Avinguda Diagonal, 107, Barcelona",True,41.40718710000001,2.2033786,08005,Poblenou,Sant Marti
Youme Sushi,"C. de Pujades, 228, 08005 Barcelona, Spain",4.4,1,1,0,1,0,1,1,0,0,1,19.0,"Carrer de Pujades, 228, Barcelona",,41.4032688,2.2031846,08005,Poblenou,Sant Marti
Le Cinquante Huit,"Rambla del Poblenou, 58, 08005 Barcelona, Spain",5.0,0,1,0,1,0,1,1,0,1,1,1.0,"Rambla del Poblenou, 58, Barcelona",True,41.40043609999999,2.202262799999999,08005,Poblenou,Sant Marti
El 58,"Rambla del Poblenou, 58, 08005 Barcelona, Spain",4.4,0,1,1,1,1,1,1,0,1,0,2637.0,"Rambla del Poblenou, 58, Barcelona",True,41.40044779999999,2.202324899999999,08005,Poblenou,Sant Marti
Billy Brunch Headquarters,"C/ de Muntaner, 64, 08011 Barcelona, Spain",4.8,0,1,0,1,1,1,1,1,1,1,2072.0,"Carrer de Muntaner, 64, Barcelona",True,41.387054,2.1592414,08011,Esquerra Eixample,Eixample
EL MOS CAFETERIA GASTRO BAR,"C/ de Sardenya, 492, 08025 Barcelona, Spain",4.3,0,1,0,1,1,1,1,0,1,1,211.0,"Carrer de Sardenya, 492, Barcelona",True,41.4103644,2.164557,08025,Camps d'en Grassot i Gracia Nova,Gracia
Casa Palet,"Carrer de Laforja, 9, 08006 Barcelona, Spain",4.5,1,1,1,1,1,1,1,0,1,1,593.0,"Carrer de Laforja, 9, Barcelona",False,41.3998985,2.1507813,08006,El Farro,Sarria - Sant Gervasi
Caferia Fortune Restaurant,"Av. de Roma, 110, 08015 Barcelona, Spain",3.5,0,1,0,1,0,0,0,0,1,1,132.0,"Avinguda de Roma, 110, Barcelona",,41.38432880000001,2.1529196,08015,Nova Esquerra Exiample - Sant Antoni,Eixample
Restaurant De Blanc,"Av. de Roma, 22, 08015 Barcelona, Spain",,0,1,1,1,1,1,1,0,1,0,,"Avinguda de Roma, 22, Barcelona",True,41.3810283,2.145555400000001,08015,Nova Esquerra Exiample - Sant Antoni,Eixample
Bar Restaurant Àngel,"Pg. del Taulat, 271, 08019 Barcelona, Spain",3.5,0,1,0,1,0,0,0,0,1,1,84.0,"Passeig del Taulat, 271, Barcelona",,41.4052625,2.2126617,08019,El Besos - Sant Marti,Sant Marti
Dvici Restaurant,"Av. de la República Argentina, 44, 08023 Barcelona, Spain",4.8,0,1,0,1,0,0,0,0,1,1,82.0,"Avinguda de la República Argentina, 44, Barcelona",,41.4090281,2.1471155,08023,El Coll,Gracia
Terra d'Escudella,"Carrer de Premià, 20, 08014 Barcelona, Spain",4.5,1,1,1,1,1,1,1,1,1,1,2611.0,"Carrer de Premià, 20, Barcelona",True,41.3762722,2.1391333,08014,La Bordeta - Les Corts,Sants - Montjuic
Restaurant Salsalada barra&bar,"La Rambla, 89, 08002 Barcelona, Spain",1.8,0,1,0,1,0,1,1,0,1,0,34.0,"La Rambla, 89, Barcelona",,41.3818695,2.1724129,08002,Barri Gotic,Ciutat Vella
Loreto 75º,"C/ de Loreto, 5, 08029 Barcelona, Spain",4.6,0,1,1,1,1,0,1,0,1,1,134.0,"Carrer de Loreto, 5, Barcelona",True,41.3889289,2.1417533,08029,Sarria,Sarria - Sant Gervasi
Yoshino,"C/ de Mallorca, 90, 08029 Barcelona, Spain",3.9,1,1,1,1,0,1,1,1,1,1,3470.0,"Carrer de Mallorca, 90, Barcelona",True,41.3851167,2.1513917,08029,Sarria,Sarria - Sant Gervasi
Plaza restaurant,"Carrer de Vila i Vilà, 86, 08004 Barcelona, Spain",2.7,0,1,0,1,0,1,1,0,1,1,101.0,"Carrer de Vila i Vilà, 86, Barcelona",True,41.3746249,2.1678232,08004,Poble Sec,Sants - Montjuic
Frankfurt Tolik,"Carrer de Sant Francesc Xavier, 50, 08016 Barcelona, Spain",4.5,0,1,0,1,0,0,0,0,1,1,28.0,"Carrer de Sant Francesc Xavier, 50, Barcelona",True,41.4403212,2.1798341,08016,Porta-La Prosperitat,Nou Barris
Zn Rostisseria Y Comida Mediterránea,"Pg. de Fabra i Puig, 08031 Barcelona, Spain",,0,1,0,0,0,0,0,0,0,0,,"Passeig de Fabra i Puig, Barcelona",,41.4303786,2.1660225,08031,Horta,Horta - Guinardo
Raizes,"C/ de Provença, 357, 08037 Barcelona, Spain",4.7,0,1,1,1,0,1,1,0,1,1,193.0,"Carrer de Provença, 357, Barcelona",True,41.4008785,2.169246900000001,08037,Dreta Eixample,Eixample
Bar Viejo Café,"C/ de la Independència, 306, 08026 Barcelona, Spain",4.2,0,1,1,1,0,1,1,0,1,1,221.0,"Carrer de la Independència, 306, Barcelona",True,41.40943849999999,2.1815446,08026,Camp de l'arpa,Sant Marti
llaollao,"C/ de Potosí, 2, 08030 Barcelona, Spain",3.8,1,1,0,0,0,0,0,0,0,1,219.0,"Carrer de Potosí, 2, Barcelona",True,41.439841,2.197844,08030,San Andres Palomar,Sant Andreu
Via Margutta,"Carrer del Fonollar, 2, 08003 Barcelona, Spain",4.2,1,1,1,1,0,1,1,0,1,1,599.0,"Carrer del Fonollar, 2, Barcelona",True,41.38676419999999,2.1799061,08003,Barceloneta,Ciutat Vella
Vermuteria del Yayo,"C/ de Joan Güell, 30, 08028 Barcelona, Spain",4.6,0,1,1,1,0,1,1,0,1,1,608.0,"Carrer de Joan Güell, 30, Barcelona",True,41.3775522,2.134053,08028,Les Corts,Les Corts
"Panet Gràcia - Forn de Pa, Pastisseria i Cafeteria","Carrer de Puigmartí, 14, 08012 Barcelona, Spain",4.2,0,1,0,0,0,0,0,0,0,1,168.0,"Carrer de Puigmartí, 14, Barcelona",True,41.4014335,2.1590747,08012,Vila de Gracia,Gracia
CC推薦pizza,"NAP Antic, Av. de Francesc Cambó, 30, 08003 Barcelona, Spain",,0,1,0,0,0,0,0,0,0,0,,"NAP Antic, Avinguda de Francesc Cambó, 30, Barcelona",,41.3869099,2.1788451,08003,Barceloneta,Ciutat Vella
El Kebab (Halal),"Carrer dels Escultors Claperós, 40, 08018 Barcelona, Spain",5.0,1,1,0,0,0,1,1,0,0,1,4.0,"Carrer dels Escultors Claperós, 40, Barcelona",,41.4066324,2.1889862,08018,El Clot,Sant Marti
Restaurant Xinès Catalunya,"Av. de Madrid, 100, 08028 Barcelona, Spain",3.5,1,1,1,1,0,1,1,0,1,1,318.0,"Avinguda de Madrid, 100, Barcelona",True,41.378529,2.1279947,08028,Les Corts,Les Corts
Delhi Sweets Restaurant & Pizzeria,"Carrer de Santa Margarida, 6, 08001 Barcelona, Spain",3.9,1,1,0,1,0,1,1,0,0,1,54.0,"Carrer de Santa Margarida, 6, Barcelona",True,41.3791019,2.1725239,08001,El Raval,Ciutat Vella
Petipe,"Vic, 25, 08012 Barcelona, Spain",3.0,0,1,0,1,0,0,1,0,1,1,3.0,"Vic, 25, Barcelona",,41.3996594,2.1558409,08012,Vila de Gracia,Gracia
Restaurante Peruano Sabor del winikunka,"Carrer de Deià, 3, 08016 Barcelona, Spain",5.0,1,1,1,1,0,1,1,0,1,1,1.0,"Carrer de Deià, 3, Barcelona",True,41.4325715,2.1772966,08016,Porta-La Prosperitat,Nou Barris
Ametller Origen,"Av. de Josep Tarradellas, 129, 08029 Barcelona, Spain",3.8,1,0,0,0,0,0,0,0,0,0,107.0,"Avinguda de Josep Tarradellas, 129, Barcelona",True,41.3897814,2.143145899999999,08029,Sarria,Sarria - Sant Gervasi
Inversiones Ccs Burger 2016 Sl,"Carrer del Torrent de les Flors, 119, 08024 Barcelona, Spain",,0,1,0,0,0,0,0,0,0,0,,"Carrer del Torrent de les Flors, 119, Barcelona",,41.4087427,2.157646600000001,08024,Gracia - Can Baro,Gracia
Montesquiu,"Carrer de Mandri, 56, 08022 Barcelona, Spain",4.1,1,1,1,1,1,1,1,0,1,1,1087.0,"Carrer de Mandri, 56, Barcelona",True,41.4046815,2.132561099999999,08022,Sarria - La Bonanova,Les Corts
Restaurante C&D Japonés,"n°3, Carrer de Joan Gamper, 08014 Barcelona, Spain",,0,1,0,0,0,0,0,0,0,0,,"n°3, Carrer de Joan Gamper, Barcelona",,41.38718410000001,2.1351556,08014,La Bordeta - Les Corts,Sants - Montjuic
Bar Restaurant Cabeza de Manzaneda,"Ronda del General Mitre, 152, 08006 Barcelona, Spain",4.0,0,1,0,0,0,0,0,0,0,0,7.0,"Ronda del General Mitre, 152, Barcelona",,41.4036562,2.1395109,08006,El Farro,Sarria - Sant Gervasi
Bar-Restaurante Martin's,"C/ d'Atenes, 2, 08006 Barcelona, Spain",3.8,0,1,1,1,1,1,1,0,1,1,434.0,"Carrer d'Atenes, 2, Barcelona",,41.4025497,2.1439434,08006,El Farro,Sarria - Sant Gervasi
Fragrante pizza & fritti,"Carrer del Comte d'Urgell, 90, 08011 Barcelona, Spain",4.7,1,1,1,1,0,1,1,1,1,1,485.0,"Carrer del Comte d'Urgell, 90, Barcelona",True,41.3830543,2.157678600000001,08011,Esquerra Eixample,Eixample
QUIM CAFÈ,"C/ d'Aragó, 375, 08013 Barcelona, Spain",4.2,0,1,0,1,1,0,1,0,1,1,280.0,"Carrer d'Aragó, 375, Barcelona",,41.398674,2.1732037,08013,El Fort Pienc,Eixample
LA MASIA D´HORTA,"Carrer del Tajo, 6, 08031 Barcelona, Spain",3.9,0,1,1,1,1,1,1,0,1,1,975.0,"Carrer del Tajo, 6, Barcelona",True,41.4303068,2.162733,08031,Horta,Horta - Guinardo
PAU DE SARRIÀ.,"Plaça Sant Vicenç de Sarrià, 1, 08017 Barcelona, Spain",4.3,0,1,1,1,1,1,1,0,1,1,333.0,"Plaça Sant Vicenç de Sarrià, 1, Barcelona",False,41.3971987,2.1240766,08017,Vallvidrera,Sarria - Sant Gervasi
Original's Bakery,"Via Augusta, 58, 08006 Barcelona, Spain",3.3,0,1,0,0,0,0,0,0,0,0,4.0,"Via Augusta, 58, Barcelona",,41.39998199999999,2.1521731,08006,El Farro,Sarria - Sant Gervasi
El Chato,"Gran Via de les Corts Catalanes, 697, 08013 Barcelona, Spain",4.4,0,1,1,1,0,1,1,0,1,0,469.0,"Gran Via de les Corts Catalanes, 697, Barcelona",True,41.3972013,2.1781809,08013,El Fort Pienc,Eixample
Burger King,"Metro Catalunya, Rambla de Catalunya, 5, 08007 Barcelona, Spain",3.6,1,1,0,1,0,1,1,0,0,1,2244.0,"Metro Catalunya, Rambla de Catalunya, 5, Barcelona",True,41.38760000000001,2.1676853,08007,Antiga Esquerra Eixample,Eixample
Casa Massana,"Poble Espanyol, Av. de Francesc Ferrer i Guàrdia, 13, 08038 Barcelona, Spain",2.8,0,1,1,1,0,1,1,0,1,1,249.0,"Poble Espanyol, Avinguda de Francesc Ferrer i Guàrdia, 13, Barcelona",True,41.3691061,2.1477282,08038,Montjuic,Sants - Montjuic
Casa Gallega,"Carrer de Vila i Vilà, 73, 08004 Barcelona, Spain",1.0,0,1,0,0,0,0,0,0,0,1,4.0,"Carrer de Vila i Vilà, 73, Barcelona",True,41.37407249999999,2.1688838,08004,Poble Sec,Sants - Montjuic
SandwiChez,"Passeig de la Reina Elisenda de Montcada, 16 bis, 08034 Barcelona, Spain",3.8,0,1,1,1,1,1,1,0,1,1,504.0,"Passeig de la Reina Elisenda de Montcada, 16 bis, Barcelona",True,41.3992863,2.1195644,08034,Pedralbes,Les Corts
El Café De La Central,"C/ de Mallorca, 237, 08008 Barcelona, Spain",3.2,0,1,0,1,0,0,1,0,1,1,13.0,"Carrer de Mallorca, 237, Barcelona",True,41.39215249999999,2.1600097,08008,Antiga Esquerra Eixample,Eixample
Cafè Melòdic,"C/ de l'Encarnació, 159, 161, 08025 Barcelona, Spain",4.9,1,1,1,1,1,1,1,1,1,1,119.0,"Carrer de l'Encarnació, 159, 161, Barcelona",True,41.4101143,2.1659002,08025,Camps d'en Grassot i Gracia Nova,Gracia
Bar Bullit,"Carrer del Terç de la Mare de Déu de Montserrat, 28, 08930 Barcelona, Spain",4.2,0,1,1,1,0,1,1,0,1,1,129.0,"Carrer del Terç de la Mare de Déu de Montserrat, 28, Barcelona",,41.4284134,2.2104529,08930,,
Restaurant Carmina,"C. de l'Argenteria, 37, 08003 Barcelona, Spain",4.3,0,1,1,1,0,1,1,0,1,0,1254.0,"Carrer de l'Argenteria, 37, Barcelona",True,41.3837792,2.1800544,08003,Barceloneta,Ciutat Vella
La Soga BCN,"C/ de Bilbao, 196, 08018 Barcelona, Spain",4.6,1,1,1,1,1,1,1,0,1,1,273.0,"Carrer de Bilbao, 196, Barcelona",True,41.4106827,2.1932764,08018,El Clot,Sant Marti
Bull Brunch & Music,"Pg. de St. Joan, 87, 08009 Barcelona, Spain",4.6,1,1,1,1,1,1,1,0,1,1,243.0,"Passeig de Sant Joan, 87, Barcelona",True,41.398046,2.1709319,08009,Dreta Eixample,Eixample
Restaurante Fooding,"C/ de Balmes, 44, 08007 Barcelona, Spain",4.5,0,1,1,1,1,0,1,0,1,1,4.0,"Carrer de Balmes, 44, Barcelona",True,41.3887827,2.1635135,08007,Antiga Esquerra Eixample,Eixample
Dürüm Kebab Gràcia,"Travessera de Gràcia, 339, 08025 Barcelona, Spain",3.9,1,1,0,1,0,1,1,0,0,1,353.0,"Travessera de Gràcia, 339, Barcelona",False,41.4073475,2.1672041,08025,Camps d'en Grassot i Gracia Nova,Gracia
Cafeteria Sant Jordi,"Via Augusta, 269, 08017 Barcelona, Spain",4.3,0,1,1,1,0,0,1,0,1,1,64.0,"Via Augusta, 269, Barcelona",True,41.3976244,2.1311544,08017,Vallvidrera,Sarria - Sant Gervasi
Bar Restaurant Los Charros,"Carrer de Bartrina, 5, 08030 Barcelona, Spain",4.3,0,1,0,1,0,0,1,0,1,1,98.0,"Carrer de Bartrina, 5, Barcelona",True,41.44009250000001,2.1863668,08030,San Andres Palomar,Sant Andreu
Don Vitto Restaurante y Pizzería,"C/ de Mallorca, 466, 08013 Barcelona, Spain",4.5,1,1,1,1,1,1,1,1,1,1,657.0,"Carrer de Mallorca, 466, Barcelona",False,41.40573450000001,2.178598200000001,08013,El Fort Pienc,Eixample
La Prudencia del Raval,"Carrer de l'Abat Safont, 11, 08001 Barcelona, Spain",4.5,0,1,1,1,1,1,1,0,1,1,373.0,"Carrer de l'Abat Safont, 11, Barcelona",True,41.3758113,2.168827,08001,El Raval,Ciutat Vella
Bodega Iturre,"C/ de Sardenya, 361, 08025 Barcelona, Spain",4.6,0,1,0,0,0,0,0,0,0,0,325.0,"Carrer de Sardenya, 361, Barcelona",True,41.4057318,2.1700566,08025,Camps d'en Grassot i Gracia Nova,Gracia
DISBAUXA I MENJAR S.L.,"AVINGUDA DIAGONAL, 208 LOC 409, 08018 Barcelona, Spain",,0,1,0,1,0,0,1,0,1,0,,"AVINGUDA DIAGONAL, 208 LOC 409, Barcelona",,41.404961,2.192574,08018,El Clot,Sant Marti
Que Bo,"08003 Barcelona, Spain",4.0,0,1,0,0,0,0,0,0,0,0,35.0,Spain,,41.3782345,2.1894269,08003,Barceloneta,Ciutat Vella
Lokal,"Carrer de la Marina, 19, 21, 08005 Barcelona, Spain",3.8,0,1,1,0,1,1,1,1,0,0,16.0,"Carrer de la Marina, 19, 21, Barcelona",True,41.3868054,2.196971,08005,Poblenou,Sant Marti
Fusion,"C/ de Provença, 48, 08029 Barcelona, Spain",,0,1,0,1,0,0,1,0,1,1,,"Carrer de Provença, 48, Barcelona",,41.3826192,2.1457559,08029,Sarria,Sarria - Sant Gervasi
Indochine,"C/ d'Aribau, 247, 08021 Barcelona, Spain",4.2,0,1,1,1,0,1,1,0,1,1,265.0,"Carrer d'Aribau, 247, Barcelona",True,41.3983193,2.1466585,08021,Les Corts - Sarria,Les Corts
Go Beach Club Barcelona,"Carrer Port Esportiu, 14P, 08930 Barcelona, Spain",4.3,0,1,1,1,1,1,1,1,1,0,2435.0,"Carrer Port Esportiu, 14P, Barcelona",True,41.4137625,2.2292746,08930,,
